{"terminals":[{"id":"e69c3c3c-d9ac-45e2-a839-c7f0f58d4191","name":"Bangkal davao","lat":7.06041604493082,"lng":125.5541443498,"type":"Jeep","details":null,"schedule":null,"images":[],"created_by":"5a4aacb7-34d7-45bf-a205-8359d0023908","updated_at":"2026-04-16T02:33:48.951Z","created_at":"2026-04-16T02:33:48.951Z","likes":0,"dislikes":0,"outdated_votes":0,"creator_name":"privanindivan","my_vote":null},{"id":"039a35b9-2a76-4ce8-9bae-603673b1b247","name":"GMA robinson","lat":14.3003444927691,"lng":120.954017043114,"type":"Jeep","details":"","schedule":{"end":"","days":"Daily","start":""},"images":[],"created_by":"5a4aacb7-34d7-45bf-a205-8359d0023908","updated_at":"2026-04-15T16:00:26.054Z","created_at":"2026-04-15T16:00:12.673Z","likes":0,"dislikes":0,"outdated_votes":0,"creator_name":"privanindivan","my_vote":null},{"id":"ad48b31d-3f90-4f80-af8e-d3d2ba572cc3","name":"Magra","lat":14.2937188514209,"lng":121.006052253788,"type":"Tricycle","details":null,"schedule":null,"images":[],"created_by":"de18cad9-f771-4030-92d6-183b43aff188","updated_at":"2026-04-06T08:23:19.338Z","created_at":"2026-04-06T08:23:19.338Z","likes":0,"dislikes":0,"outdated_votes":0,"creator_name":"rose","my_vote":null},{"id":"ed201984-c3ea-46b0-8051-fda13625904f","name":"GMA terminal","lat":14.2877491674341,"lng":121.000446834205,"type":"Tricycle","details":"","schedule":{"end":"","days":"Daily","start":""},"images":[],"created_by":"de18cad9-f771-4030-92d6-183b43aff188","updated_at":"2026-04-06T08:28:20.194Z","created_at":"2026-04-06T08:22:08.211Z","likes":0,"dislikes":0,"outdated_votes":0,"creator_name":"rose","my_vote":null},{"id":"c261c2c8-c57e-4817-bb7a-c8afce9920d9","name":"Gregoria","lat":14.3264178961156,"lng":121.032252124843,"type":"Jeep","details":null,"schedule":null,"images":["https://ik.imagekit.io/krsqntzkg/sakayan/xvdny0rcdev3aq8b24xf.jpg"],"created_by":"de18cad9-f771-4030-92d6-183b43aff188","updated_at":"2026-04-11T05:18:27.771Z","created_at":"2026-04-06T08:12:24.331Z","likes":0,"dislikes":0,"outdated_votes":0,"creator_name":"rose","my_vote":null},{"id":"3b09b9ef-813b-4d59-aa26-3523ea014b86","name":"Waltermart carmona","lat":14.3140777108654,"lng":121.050051474631,"type":"Jeep","details":null,"schedule":null,"images":["https://ik.imagekit.io/krsqntzkg/sakayan/ea8it5mcts32ucor8f69.jpg","https://ik.imagekit.io/krsqntzkg/sakayan/cd7qgobh3j87keppflbb.jpg","https://ik.imagekit.io/krsqntzkg/sakayan/auhjzqgzel0mimywv90z.jpg","https://ik.imagekit.io/krsqntzkg/sakayan/nrujxjupi2x1ntelkwy7.jpg"],"created_by":"de18cad9-f771-4030-92d6-183b43aff188","updated_at":"2026-04-11T04:16:28.046Z","created_at":"2026-04-06T08:11:16.483Z","likes":0,"dislikes":0,"outdated_votes":0,"creator_name":"rose","my_vote":null},{"id":"037a811a-9fe9-4455-9359-137245694989","name":"Infanta, Quezon, Philippines","lat":14.74072,"lng":121.64508,"type":"Bus","details":null,"schedule":"8:30 am to 5:00 pm","images":[],"created_by":"b45b7940-2b26-498b-914c-2452ba60d98d","updated_at":"2026-04-04T08:10:50.274Z","created_at":"2026-04-04T08:10:50.274Z","likes":0,"dislikes":0,"outdated_votes":0,"creator_name":"russjhonjamesnambatac","my_vote":null},{"id":"608b70a8-f452-4bc3-b608-fdfe8e2c53d2","name":"Quezon City Hall Lagoon, Diliman, Quezon City, Metro Manila, Philippines","lat":14.6473,"lng":121.04929,"type":"Bus","details":"The stop is located outside the Quezon City Hall High Rise Building along Elliptical Road.","schedule":"Check the Notes","images":["https://ik.imagekit.io/krsqntzkg/sakayan/jkx94dyz1p0w3kf5thvt.jpg","https://ik.imagekit.io/krsqntzkg/sakayan/zenfrabeo29dkgxkxxvw.jpg","https://ik.imagekit.io/krsqntzkg/sakayan/gyapnf7jxv0kp8viveyz.jpg","https://ik.imagekit.io/krsqntzkg/sakayan/tritgs2nyor1wxydupov.jpg"],"created_by":"b45b7940-2b26-498b-914c-2452ba60d98d","updated_at":"2026-04-11T12:19:30.093Z","created_at":"2026-04-04T08:10:49.705Z","likes":0,"dislikes":0,"outdated_votes":0,"creator_name":"russjhonjamesnambatac","my_vote":null},{"id":"c65a35f7-3f55-4668-a51a-5006c849287f","name":"SM Calamba Parking Area, Real Road, Real, Calamba, Laguna, Philippines","lat":14.20273,"lng":121.15383,"type":"UV Express","details":"SM City Calamba is a prominent multilevel mall located along the National Road in Brgy Real, Calamba City, Laguna.","schedule":"5:00 am - 6:00 pm","images":["https://ik.imagekit.io/krsqntzkg/sakayan/jc7bqmyogeiecjzvp2s6.jpg","https://ik.imagekit.io/krsqntzkg/sakayan/ihdpzmuudl9lkfr2rjwd.jpg","https://ik.imagekit.io/krsqntzkg/sakayan/sodsc9ciqsjg32dn1wo0.jpg","https://ik.imagekit.io/krsqntzkg/sakayan/derxf9vjbepam96vg5eu.jpg"],"created_by":"b45b7940-2b26-498b-914c-2452ba60d98d","updated_at":"2026-04-11T04:38:44.971Z","created_at":"2026-04-04T08:10:46.646Z","likes":0,"dislikes":0,"outdated_votes":0,"creator_name":"russjhonjamesnambatac","my_vote":null},{"id":"1769762c-b47a-42a8-8a04-647f92d0c2c6","name":"Negosyo Center Siniloan, Siniloan, Laguna, Philippines","lat":0,"lng":0,"type":"Tricycle","details":null,"schedule":"24 Hours","images":["https://ik.imagekit.io/krsqntzkg/sakayan/a4cvotekf3zji4kvw3lh.jpg","https://ik.imagekit.io/krsqntzkg/sakayan/pjkadihojoju32gnzfdu.jpg","https://ik.imagekit.io/krsqntzkg/sakayan/aypiga2rajjrppfwxad0.jpg","https://ik.imagekit.io/krsqntzkg/sakayan/exhsju6kakgy0kck3uxg.jpg"],"created_by":"b45b7940-2b26-498b-914c-2452ba60d98d","updated_at":"2026-04-11T04:22:13.454Z","created_at":"2026-04-04T08:10:43.915Z","likes":0,"dislikes":0,"outdated_votes":0,"creator_name":"russjhonjamesnambatac","my_vote":null},{"id":"ba223e34-4260-44da-a098-f71ef9cdc2ce","name":"Quiapo Church Plaza Miranda","lat":14.5303693922953,"lng":121.155822676721,"type":"Bus","details":"This stop is located at SM City Taytay, serving as a major transport hub often referred to as the Taytay Terminal.","schedule":"4:00 AM - 9:00 PM","images":["https://ik.imagekit.io/krsqntzkg/sakayan/ma0awjsx2xhdack1gxio.jpg","https://ik.imagekit.io/krsqntzkg/sakayan/koac5119e1nwc2wkyd5j.jpg","https://ik.imagekit.io/krsqntzkg/sakayan/cevoeagwwltuidsm85ql.jpg"],"created_by":"b45b7940-2b26-498b-914c-2452ba60d98d","updated_at":"2026-04-11T12:06:36.645Z","created_at":"2026-04-04T08:10:41.910Z","likes":0,"dislikes":0,"outdated_votes":0,"creator_name":"russjhonjamesnambatac","my_vote":null},{"id":"2a13912b-2766-40dc-ad8a-ae36b5340087","name":"Ortigas Flyover","lat":14.5899146149604,"lng":121.079784942768,"type":"Jeep","details":"C-5 Ortigas Flyover, E. Rodriguez Jr. Ave, Pasig City","schedule":"Check the Notes","images":["https://ik.imagekit.io/krsqntzkg/sakayan/nuce5aybm8eygzq2xvuw.jpg","https://ik.imagekit.io/krsqntzkg/sakayan/fsdida1ozvjkww8umxe7.jpg"],"created_by":"b45b7940-2b26-498b-914c-2452ba60d98d","updated_at":"2026-04-11T03:53:29.232Z","created_at":"2026-04-02T12:34:07.345Z","likes":0,"dislikes":0,"outdated_votes":0,"creator_name":"russjhonjamesnambatac","my_vote":null},{"id":"3ce287a1-e0cd-48c8-8d59-096d32065baa","name":"Araneta City Cubao","lat":14.6327,"lng":121.0769,"type":"Bus","details":"Major commercial complex and intermodal transport hub in Quezon City.","schedule":null,"images":[],"created_by":"b45b7940-2b26-498b-914c-2452ba60d98d","updated_at":"2026-04-02T12:34:06.498Z","created_at":"2026-04-02T12:34:06.498Z","likes":0,"dislikes":0,"outdated_votes":0,"creator_name":"russjhonjamesnambatac","my_vote":null},{"id":"e67a43d3-dec7-4db2-8f6d-cf8fb84db745","name":"Famy - Siniloan Crossing","lat":14.4360523470557,"lng":121.449211033899,"type":"Bus","details":null,"schedule":null,"images":[],"created_by":"b45b7940-2b26-498b-914c-2452ba60d98d","updated_at":"2026-04-02T12:34:05.889Z","created_at":"2026-04-02T12:34:05.889Z","likes":0,"dislikes":0,"outdated_votes":0,"creator_name":"russjhonjamesnambatac","my_vote":null},{"id":"240edab3-cb49-4dd1-98f2-3a71756b34bd","name":"Kapasigan","lat":14.5609246097149,"lng":121.076695535711,"type":"Bus","details":"Kapasigan is located in Pasig, Metro Manila.","schedule":null,"images":["https://ik.imagekit.io/krsqntzkg/sakayan/hjhwkmhsqviiotcbeipd.jpg","https://ik.imagekit.io/krsqntzkg/sakayan/kxofeiwnoxeyckeliiet.jpg"],"created_by":"b45b7940-2b26-498b-914c-2452ba60d98d","updated_at":"2026-04-11T04:27:56.619Z","created_at":"2026-04-02T12:34:05.662Z","likes":0,"dislikes":0,"outdated_votes":0,"creator_name":"russjhonjamesnambatac","my_vote":null},{"id":"90550906-7d78-4448-87c6-6d7fb763349f","name":"AFPMBAI","lat":14.6111090882989,"lng":121.055972823946,"type":"Jeep","details":"AFPMBAI is an insurance agency located at the corner of Col. Bonny Serrano Avenue and Epifanio de los Santos Avenue (EDSA) in Quezon City, near Camp Aguinaldo.","schedule":null,"images":[],"created_by":"b45b7940-2b26-498b-914c-2452ba60d98d","updated_at":"2026-04-02T12:34:02.659Z","created_at":"2026-04-02T12:34:02.659Z","likes":0,"dislikes":0,"outdated_votes":0,"creator_name":"russjhonjamesnambatac","my_vote":null},{"id":"176e2bd7-e585-43e5-82e7-19ee9566a620","name":"Murphy Public Market","lat":14.615225353795,"lng":121.061586933062,"type":"Jeep","details":"Auto-generated: 15th Ave, Murphy, Quezon City, Metro Manila, Philippines","schedule":"24 Hours","images":["https://ik.imagekit.io/krsqntzkg/sakayan/urk1idb1ykmbpkwmmbwy.jpg","https://ik.imagekit.io/krsqntzkg/sakayan/vc4dr9ebtkklql3km0sd.jpg","https://ik.imagekit.io/krsqntzkg/sakayan/lntpsgei0zpkox5eblyq.jpg"],"created_by":"b45b7940-2b26-498b-914c-2452ba60d98d","updated_at":"2026-04-11T03:55:43.083Z","created_at":"2026-04-02T12:34:01.624Z","likes":0,"dislikes":0,"outdated_votes":0,"creator_name":"russjhonjamesnambatac","my_vote":null},{"id":"52d0888c-356c-4992-8789-296f604de02a","name":"Zc Integrated Bus Terminal","lat":6.9273365,"lng":122.0848666,"type":"Tricycle","details":null,"schedule":null,"images":["https://ik.imagekit.io/krsqntzkg/sakayan/fdhxqnbfyci74wsjsz8i.jpg","https://ik.imagekit.io/krsqntzkg/sakayan/svsdqkrt43npoeyxqbq1.jpg","https://ik.imagekit.io/krsqntzkg/sakayan/tpc7xehlts0ypaklvkcp.jpg","https://ik.imagekit.io/krsqntzkg/sakayan/x3lumlv8dfmmqmbjvwd1.jpg"],"created_by":null,"updated_at":"2026-04-11T10:46:36.466Z","created_at":"2026-04-02T10:37:33.213Z","likes":0,"dislikes":0,"outdated_votes":0,"creator_name":null,"my_vote":null},{"id":"ebde8fc4-528e-4018-aa30-6fd141a3bda9","name":"SM City General Santos (Gensan) Tricycle Terminal","lat":6.1167435,"lng":125.1797055,"type":"Tricycle","details":null,"schedule":null,"images":null,"created_by":null,"updated_at":"2026-04-02T10:37:28.141Z","created_at":"2026-04-02T10:37:28.141Z","likes":0,"dislikes":0,"outdated_votes":0,"creator_name":null,"my_vote":null},{"id":"d139cb14-bf23-4547-884e-4a5ee7819a70","name":"Tricycle Terminal","lat":6.1050451,"lng":125.158359,"type":"Tricycle","details":null,"schedule":null,"images":null,"created_by":null,"updated_at":"2026-04-02T10:37:28.022Z","created_at":"2026-04-02T10:37:28.022Z","likes":0,"dislikes":0,"outdated_votes":0,"creator_name":null,"my_vote":null},{"id":"2a67e5e6-cea8-48c2-aafc-a400d699992a","name":"Tricycle Operator Drivers Association, Inc","lat":7.1785803,"lng":125.6527596,"type":"Tricycle","details":null,"schedule":null,"images":null,"created_by":null,"updated_at":"2026-04-02T10:37:22.873Z","created_at":"2026-04-02T10:37:22.873Z","likes":0,"dislikes":0,"outdated_votes":0,"creator_name":null,"my_vote":null},{"id":"6d8c2b5f-0665-402e-a019-a2aa4c8ef185","name":"Tricycle terminal","lat":6.7450759,"lng":125.363573,"type":"Tricycle","details":null,"schedule":null,"images":["https://ik.imagekit.io/krsqntzkg/sakayan/jkft3wzwxtnectgxphkj.jpg","https://ik.imagekit.io/krsqntzkg/sakayan/hpespuycanfhacxyay2p.jpg","https://ik.imagekit.io/krsqntzkg/sakayan/gmsrfemesmhsx8mgwcr9.jpg"],"created_by":null,"updated_at":"2026-04-11T04:15:22.023Z","created_at":"2026-04-02T10:37:22.603Z","likes":0,"dislikes":0,"outdated_votes":0,"creator_name":null,"my_vote":null},{"id":"3ac34e28-bbb5-47fb-8bdf-c51ae61864ae","name":"TUDITTRANSCO TRIKE TERMINAL","lat":7.0899629,"lng":125.5049569,"type":"Tricycle","details":null,"schedule":null,"images":null,"created_by":null,"updated_at":"2026-04-02T10:37:22.440Z","created_at":"2026-04-02T10:37:22.440Z","likes":0,"dislikes":0,"outdated_votes":0,"creator_name":null,"my_vote":null},{"id":"e31ca45f-ac94-4d5d-9fbf-1327b8d84114","name":"Daniel Z. Romualdez Airport","lat":11.2267191,"lng":125.0261297,"type":"Tricycle","details":null,"schedule":null,"images":["https://ik.imagekit.io/krsqntzkg/sakayan/cqm3rbgposz6fqyhoivo.jpg","https://ik.imagekit.io/krsqntzkg/sakayan/byqpomwkdfqvkrpegldl.jpg","https://ik.imagekit.io/krsqntzkg/sakayan/kdpg1byxnrnnjecml2g0.jpg","https://ik.imagekit.io/krsqntzkg/sakayan/frwkfezaauj3ptaz4tky.jpg"],"created_by":null,"updated_at":"2026-04-11T11:10:39.155Z","created_at":"2026-04-02T10:37:12.167Z","likes":0,"dislikes":0,"outdated_votes":0,"creator_name":null,"my_vote":null},{"id":"ecd04548-a533-4dc4-bc13-abb3e16e5db1","name":"New Bachelor tours terminal","lat":11.187264,"lng":124.9954355,"type":"Tricycle","details":null,"schedule":null,"images":["https://ik.imagekit.io/krsqntzkg/sakayan/ieusy1fxeti4rcqjykyy.jpg","https://ik.imagekit.io/krsqntzkg/sakayan/fumeambo4eeoetbesx6w.jpg","https://ik.imagekit.io/krsqntzkg/sakayan/kakrt88j7uvtxwtjkvhh.jpg","https://ik.imagekit.io/krsqntzkg/sakayan/xgjnsac2qenniityw9ll.jpg"],"created_by":null,"updated_at":"2026-04-11T04:31:18.264Z","created_at":"2026-04-02T10:37:12.050Z","likes":0,"dislikes":0,"outdated_votes":0,"creator_name":null,"my_vote":null},{"id":"a09e4eae-0a5e-4654-8a6c-b904abf8c2e6","name":"Sooc Tricycle Terminal Area","lat":10.6897807,"lng":122.5181704,"type":"Tricycle","details":null,"schedule":null,"images":["https://ik.imagekit.io/krsqntzkg/sakayan/jviptkkceqdnksvi3buv.jpg"],"created_by":null,"updated_at":"2026-04-11T07:52:21.829Z","created_at":"2026-04-02T10:37:01.907Z","likes":0,"dislikes":0,"outdated_votes":0,"creator_name":null,"my_vote":null},{"id":"f39f618f-aacf-4a76-9767-845cc56da4e2","name":"Tricycle Terminal","lat":10.7524109,"lng":122.5219905,"type":"Tricycle","details":null,"schedule":null,"images":null,"created_by":null,"updated_at":"2026-04-02T10:37:01.789Z","created_at":"2026-04-02T10:37:01.789Z","likes":0,"dislikes":0,"outdated_votes":0,"creator_name":null,"my_vote":null},{"id":"ec37236f-78b1-464c-9066-dffdaba1f3e1","name":"Tricycle Terminal to Tabaco City","lat":13.3972383,"lng":123.7048775,"type":"Tricycle","details":null,"schedule":null,"images":null,"created_by":null,"updated_at":"2026-04-02T10:36:56.660Z","created_at":"2026-04-02T10:36:56.660Z","likes":0,"dislikes":0,"outdated_votes":0,"creator_name":null,"my_vote":null},{"id":"ae0b4bda-5dd2-4142-838f-2809e3177857","name":"Tricycle Terminal to Bacacay Town","lat":13.2833099,"lng":123.7582544,"type":"Tricycle","details":null,"schedule":null,"images":null,"created_by":null,"updated_at":"2026-04-02T10:36:56.503Z","created_at":"2026-04-02T10:36:56.503Z","likes":0,"dislikes":0,"outdated_votes":0,"creator_name":null,"my_vote":null},{"id":"8e595b9c-042e-4cf2-bd6b-5985d928b557","name":"Bascaran-Kinawitan Tricycle Terminal","lat":13.102786,"lng":123.697733,"type":"Tricycle","details":null,"schedule":null,"images":null,"created_by":null,"updated_at":"2026-04-02T10:36:56.345Z","created_at":"2026-04-02T10:36:56.345Z","likes":0,"dislikes":0,"outdated_votes":0,"creator_name":null,"my_vote":null},{"id":"50f1a368-4a46-4013-848d-f067d2071414","name":"Tricycle Terminal","lat":15.0246845,"lng":120.8223343,"type":"Tricycle","details":null,"schedule":null,"images":null,"created_by":null,"updated_at":"2026-04-02T10:36:46.271Z","created_at":"2026-04-02T10:36:46.271Z","likes":0,"dislikes":0,"outdated_votes":0,"creator_name":null,"my_vote":null},{"id":"6eed12c4-da85-4d7c-82e9-ddd6cab22aa6","name":"Tricycle Terminal San Antonio-Jaen","lat":15.3477836,"lng":120.9385943,"type":"Tricycle","details":null,"schedule":null,"images":null,"created_by":null,"updated_at":"2026-04-02T10:36:45.999Z","created_at":"2026-04-02T10:36:45.999Z","likes":0,"dislikes":0,"outdated_votes":0,"creator_name":null,"my_vote":null},{"id":"96555bcf-22bc-4234-a4b3-87cdaa6cc66f","name":"Talugtug Tricycle Terminal","lat":15.6608333,"lng":120.7663777,"type":"Tricycle","details":null,"schedule":null,"images":["https://ik.imagekit.io/krsqntzkg/sakayan/tccqgli8uhifhvghwgn9.jpg","https://ik.imagekit.io/krsqntzkg/sakayan/efmhahbccsbzxmeabtag.jpg"],"created_by":null,"updated_at":"2026-04-11T10:06:00.470Z","created_at":"2026-04-02T10:36:45.842Z","likes":0,"dislikes":0,"outdated_votes":0,"creator_name":null,"my_vote":null},{"id":"4e0d7a7f-dd1f-4883-bc6b-bb9c47b56277","name":"PALAYAN CITY TRICYCLE TERMINAL","lat":15.5548363,"lng":121.0960047,"type":"Tricycle","details":null,"schedule":null,"images":null,"created_by":null,"updated_at":"2026-04-02T10:36:45.723Z","created_at":"2026-04-02T10:36:45.723Z","likes":0,"dislikes":0,"outdated_votes":0,"creator_name":null,"my_vote":null},{"id":"e7dcd77e-fbdd-41c2-aa69-ae212e216099","name":"INLACTODA TRICYCLE TERMINAL","lat":16.1614009,"lng":120.5221432,"type":"Tricycle","details":null,"schedule":null,"images":["https://ik.imagekit.io/krsqntzkg/sakayan/sptklbqpoccbhjdigk7y.jpg","https://ik.imagekit.io/krsqntzkg/sakayan/j88c1xy8zscxiktpneem.jpg","https://ik.imagekit.io/krsqntzkg/sakayan/dwgt9abwhoovtqk3puax.jpg"],"created_by":null,"updated_at":"2026-04-11T06:46:46.121Z","created_at":"2026-04-02T10:36:40.632Z","likes":0,"dislikes":0,"outdated_votes":0,"creator_name":null,"my_vote":null},{"id":"d8ab7094-8546-4868-8034-6f0c6c629140","name":"Lingayen Tricycle Terminal","lat":16.018783,"lng":120.2276394,"type":"Tricycle","details":null,"schedule":null,"images":["https://ik.imagekit.io/krsqntzkg/sakayan/woydtkskzbemrm6igvgt.jpg","https://ik.imagekit.io/krsqntzkg/sakayan/r5f88pdusmbroasham5h.jpg"],"created_by":null,"updated_at":"2026-04-11T03:39:58.484Z","created_at":"2026-04-02T10:36:40.436Z","likes":0,"dislikes":0,"outdated_votes":0,"creator_name":null,"my_vote":null},{"id":"22bc567e-1bfd-4eb8-b2e3-429cefb3265e","name":"Bacundao, Taluyan, Balite Tricycle Terminal","lat":15.919561,"lng":120.4154546,"type":"Tricycle","details":null,"schedule":null,"images":["https://ik.imagekit.io/krsqntzkg/sakayan/zn7xiei3h3ndaby59ovv.jpg"],"created_by":null,"updated_at":"2026-04-11T06:50:16.198Z","created_at":"2026-04-02T10:36:40.316Z","likes":0,"dislikes":0,"outdated_votes":0,"creator_name":null,"my_vote":null},{"id":"8bd51f56-510f-4e28-93fc-dfbd72ee7463","name":"Banaoang Tricycle Terminal","lat":16.0175481,"lng":120.3370728,"type":"Tricycle","details":null,"schedule":null,"images":["https://ik.imagekit.io/krsqntzkg/sakayan/uocmhl4akh42exenxqce.jpg"],"created_by":null,"updated_at":"2026-04-11T11:56:16.435Z","created_at":"2026-04-02T10:36:40.195Z","likes":0,"dislikes":0,"outdated_votes":0,"creator_name":null,"my_vote":null},{"id":"aaf7eb07-f0c7-4367-bb59-ed5163afbf1d","name":"Tricycle Terminal","lat":16.0187803,"lng":120.3750422,"type":"Tricycle","details":null,"schedule":null,"images":null,"created_by":null,"updated_at":"2026-04-02T10:36:40.039Z","created_at":"2026-04-02T10:36:40.039Z","likes":0,"dislikes":0,"outdated_votes":0,"creator_name":null,"my_vote":null},{"id":"b64ca0a9-8173-4993-9f6f-12913d56f98b","name":"Toda Tricycle Terminal","lat":16.0210298,"lng":120.3536904,"type":"Tricycle","details":null,"schedule":null,"images":null,"created_by":null,"updated_at":"2026-04-02T10:36:39.920Z","created_at":"2026-04-02T10:36:39.920Z","likes":0,"dislikes":0,"outdated_votes":0,"creator_name":null,"my_vote":null},{"id":"84cd06b8-da18-4e06-842d-85e747315f34","name":"UV Express Terminal (San Fernando & Dau)","lat":14.9554609,"lng":120.8992946,"type":"UV","details":null,"schedule":null,"images":null,"created_by":null,"updated_at":"2026-04-02T10:36:03.606Z","created_at":"2026-04-02T10:36:03.606Z","likes":0,"dislikes":0,"outdated_votes":0,"creator_name":null,"my_vote":null},{"id":"c3538c3f-9f7c-4c6b-a870-4da7247e3a0a","name":"DROP & GO CABANATUAN CITY (VICTORY LINER CARGO)","lat":15.463509,"lng":120.9520567,"type":"UV","details":null,"schedule":null,"images":null,"created_by":null,"updated_at":"2026-04-02T10:36:03.205Z","created_at":"2026-04-02T10:36:03.205Z","likes":0,"dislikes":0,"outdated_votes":0,"creator_name":null,"my_vote":null},{"id":"5974c5dd-54a0-4b58-a40b-93e154d1a90f","name":"Tetuan Jeep Terminal","lat":6.9058991,"lng":122.0771243,"type":"Jeep","details":null,"schedule":null,"images":null,"created_by":null,"updated_at":"2026-04-02T10:35:12.239Z","created_at":"2026-04-02T10:35:12.239Z","likes":0,"dislikes":0,"outdated_votes":0,"creator_name":null,"my_vote":null},{"id":"d5cbbc96-0c41-4fed-a0d8-1c2718be91ec","name":"Zamboanga City Integrated Bus Terminal","lat":6.9500055,"lng":122.1081156,"type":"Jeep","details":null,"schedule":null,"images":["https://ik.imagekit.io/krsqntzkg/sakayan/dhlaccembwlfzskvnu9b.jpg","https://ik.imagekit.io/krsqntzkg/sakayan/ohf0ny8fprelolcjqss2.jpg","https://ik.imagekit.io/krsqntzkg/sakayan/llrol5hliofghp0q2p8k.jpg","https://ik.imagekit.io/krsqntzkg/sakayan/cevvag1ylvfssjy47k9q.jpg"],"created_by":null,"updated_at":"2026-04-11T10:46:23.862Z","created_at":"2026-04-02T10:35:12.077Z","likes":0,"dislikes":0,"outdated_votes":0,"creator_name":null,"my_vote":null},{"id":"6806e24e-3a73-447b-a5fa-8d6134e988ea","name":"Cabatangan Jeepney Terminal","lat":6.9072622,"lng":122.0734893,"type":"Jeep","details":null,"schedule":null,"images":["https://ik.imagekit.io/krsqntzkg/sakayan/kjsrggkl6rifpzzmfxnz.jpg","https://ik.imagekit.io/krsqntzkg/sakayan/ci88ctbjqpda7hzbxb5e.jpg","https://ik.imagekit.io/krsqntzkg/sakayan/u97gowzelqdnrkdl9uzz.jpg","https://ik.imagekit.io/krsqntzkg/sakayan/iswj4zumfdbo2tczppjm.jpg"],"created_by":null,"updated_at":"2026-04-11T12:06:55.171Z","created_at":"2026-04-02T10:35:11.954Z","likes":0,"dislikes":0,"outdated_votes":0,"creator_name":null,"my_vote":null},{"id":"89a510c0-d781-4f4e-9abb-d20e41731828","name":"Sinawal Habal2x Terminal","lat":6.1458745,"lng":125.1332753,"type":"Jeep","details":null,"schedule":null,"images":null,"created_by":null,"updated_at":"2026-04-02T10:35:01.555Z","created_at":"2026-04-02T10:35:01.555Z","likes":0,"dislikes":0,"outdated_votes":0,"creator_name":null,"my_vote":null},{"id":"e39442cd-763f-447d-bd78-450006e2ff78","name":"Brgy. Sta. Elena Jeepney Terminal","lat":8.1961909,"lng":124.2268492,"type":"Jeep","details":null,"schedule":null,"images":["https://ik.imagekit.io/krsqntzkg/sakayan/xvnwuslil6saqm7lah0c.jpg","https://ik.imagekit.io/krsqntzkg/sakayan/iozsidysbiveb6yelazb.jpg","https://ik.imagekit.io/krsqntzkg/sakayan/tf6pen1kypoifhnnmelb.jpg"],"created_by":null,"updated_at":"2026-04-11T06:58:16.000Z","created_at":"2026-04-02T10:34:50.717Z","likes":0,"dislikes":0,"outdated_votes":0,"creator_name":null,"my_vote":null},{"id":"5ad173e2-a8d4-4b7c-ab04-3603e20c2daf","name":"Tipanoy Landless Jeepney Terminal","lat":8.1951918,"lng":124.2541587,"type":"Jeep","details":null,"schedule":null,"images":["https://ik.imagekit.io/krsqntzkg/sakayan/mplcrnt1mhuvymltkwre.jpg","https://ik.imagekit.io/krsqntzkg/sakayan/c2fafaxjnacdubw0n1dr.jpg","https://ik.imagekit.io/krsqntzkg/sakayan/zqpft15mmbpzotsueug7.jpg"],"created_by":null,"updated_at":"2026-04-11T09:59:36.495Z","created_at":"2026-04-02T10:34:50.592Z","likes":0,"dislikes":0,"outdated_votes":0,"creator_name":null,"my_vote":null},{"id":"456cf0ed-c0d1-4091-b309-fe359418e20e","name":"Bayan Jeepney Terminal","lat":13.9519126,"lng":121.6221057,"type":"Jeep","details":null,"schedule":null,"images":null,"created_by":null,"updated_at":"2026-04-02T10:33:22.773Z","created_at":"2026-04-02T10:33:22.773Z","likes":0,"dislikes":0,"outdated_votes":0,"creator_name":null,"my_vote":null},{"id":"780a9539-3ddc-4835-9632-afba89fa8c45","name":"Jeepney Terminal going to Mabini, Batangas","lat":13.7772438,"lng":121.0535404,"type":"Jeep","details":null,"schedule":null,"images":["https://ik.imagekit.io/krsqntzkg/sakayan/cr590u2ovt4crezeytd2.jpg","https://ik.imagekit.io/krsqntzkg/sakayan/mdtxyqvdapgdo3vb3i01.jpg","https://ik.imagekit.io/krsqntzkg/sakayan/pitmqzyig2oeimu3jq0m.jpg","https://ik.imagekit.io/krsqntzkg/sakayan/vc7gyzuncs79mhf5xx4n.jpg"],"created_by":null,"updated_at":"2026-04-11T10:44:10.180Z","created_at":"2026-04-02T10:33:17.530Z","likes":0,"dislikes":0,"outdated_votes":0,"creator_name":null,"my_vote":null},{"id":"9a64d55f-2c59-44d4-a866-3533402900f4","name":"MEXJeep VistaMall Bataan","lat":14.655022,"lng":120.533953,"type":"Jeep","details":null,"schedule":null,"images":null,"created_by":null,"updated_at":"2026-04-02T10:31:59.529Z","created_at":"2026-04-02T10:31:59.529Z","likes":0,"dislikes":0,"outdated_votes":0,"creator_name":null,"my_vote":null},{"id":"3981d307-4a04-4aee-a093-628bd43aa428","name":"BATAAN JEEPNEY OPERATORS AND DRIVERS TRANSPORT SERVICE COOPERATIVE","lat":14.6983007,"lng":120.5381697,"type":"Jeep","details":null,"schedule":null,"images":null,"created_by":null,"updated_at":"2026-04-02T10:31:59.181Z","created_at":"2026-04-02T10:31:59.181Z","likes":0,"dislikes":0,"outdated_votes":0,"creator_name":null,"my_vote":null},{"id":"3e5c5673-1420-4581-8a1f-e4e9688b7758","name":"Umingan Jeepney Terminal","lat":15.928402,"lng":120.844194,"type":"Jeep","details":null,"schedule":null,"images":null,"created_by":null,"updated_at":"2026-04-02T10:31:48.320Z","created_at":"2026-04-02T10:31:48.320Z","likes":0,"dislikes":0,"outdated_votes":0,"creator_name":null,"my_vote":null},{"id":"01c1ffe4-adf8-4da8-aa87-27e22d59630b","name":"Drop and Go Urdaneta (Victory Liner Cargo Padala)","lat":15.9652752,"lng":120.5726193,"type":"Jeep","details":null,"schedule":null,"images":["https://ik.imagekit.io/krsqntzkg/sakayan/lypxehasouclqbmh7mqr.jpg","https://ik.imagekit.io/krsqntzkg/sakayan/pr9csencowjftjixex3v.jpg","https://ik.imagekit.io/krsqntzkg/sakayan/sh0zyxvtvajusmbi2igg.jpg","https://ik.imagekit.io/krsqntzkg/sakayan/jsz35n8jd0fflcnnm0qx.jpg"],"created_by":null,"updated_at":"2026-04-11T10:15:12.912Z","created_at":"2026-04-02T10:31:48.168Z","likes":0,"dislikes":0,"outdated_votes":0,"creator_name":null,"my_vote":null},{"id":"eb687c0b-db04-43d0-a88d-7722dd2627b7","name":"Urdaneta City","lat":15.975404,"lng":120.570637,"type":"Jeep","details":null,"schedule":null,"images":null,"created_by":null,"updated_at":"2026-04-02T10:31:48.015Z","created_at":"2026-04-02T10:31:48.015Z","likes":0,"dislikes":0,"outdated_votes":0,"creator_name":null,"my_vote":null},{"id":"e0e97c7e-a64a-46b4-8f09-92b43ee9f58c","name":"SM Urdaneta","lat":15.970822,"lng":120.571462,"type":"Jeep","details":null,"schedule":null,"images":["https://ik.imagekit.io/krsqntzkg/sakayan/pabfb018juxptqgdejle.jpg","https://ik.imagekit.io/krsqntzkg/sakayan/l7axvfhocn9gpw53xwa4.jpg","https://ik.imagekit.io/krsqntzkg/sakayan/p9t2urqog6rr6nqbxo9u.jpg","https://ik.imagekit.io/krsqntzkg/sakayan/le8xeg0zhieiwfe9sm0f.jpg"],"created_by":null,"updated_at":"2026-04-11T07:18:30.783Z","created_at":"2026-04-02T10:31:47.862Z","likes":0,"dislikes":0,"outdated_votes":0,"creator_name":null,"my_vote":null},{"id":"b8f8cb50-6712-4403-aa1f-2a8829ff267f","name":"Five Star Bus Terminal - San Carlos","lat":15.935914,"lng":120.347189,"type":"Jeep","details":null,"schedule":null,"images":null,"created_by":null,"updated_at":"2026-04-02T10:31:42.693Z","created_at":"2026-04-02T10:31:42.693Z","likes":0,"dislikes":0,"outdated_votes":0,"creator_name":null,"my_vote":null},{"id":"3e6862f5-ceb3-4093-8525-5a15438e82ba","name":"Extreme San Carlos Dagupan Terminal","lat":15.9311402,"lng":120.3480957,"type":"Jeep","details":null,"schedule":null,"images":["https://ik.imagekit.io/krsqntzkg/sakayan/ejcg5rtvenn5bbhgtfbe.jpg","https://ik.imagekit.io/krsqntzkg/sakayan/nn0t5f05kmbsfehnoa4o.jpg"],"created_by":null,"updated_at":"2026-04-11T10:12:27.992Z","created_at":"2026-04-02T10:31:42.538Z","likes":0,"dislikes":0,"outdated_votes":0,"creator_name":null,"my_vote":null},{"id":"bc06ac9d-2d82-4f16-bd5e-3c462063e971","name":"Terminal San Carlos","lat":16.0102192,"lng":120.2855262,"type":"Jeep","details":null,"schedule":null,"images":null,"created_by":null,"updated_at":"2026-04-02T10:31:42.327Z","created_at":"2026-04-02T10:31:42.327Z","likes":0,"dislikes":0,"outdated_votes":0,"creator_name":null,"my_vote":null},{"id":"0932dfeb-68eb-4a3b-87f3-014a9d6fb3b6","name":"PINES GARAGE GT TRANSPORT, INC.","lat":16.0436021,"lng":120.333658,"type":"Jeep","details":null,"schedule":null,"images":null,"created_by":null,"updated_at":"2026-04-02T10:31:37.025Z","created_at":"2026-04-02T10:31:37.025Z","likes":0,"dislikes":0,"outdated_votes":0,"creator_name":null,"my_vote":null},{"id":"f803b426-be59-4c65-9658-4250c1398efc","name":"Mapandan - Dagupan Jeepney Terminal","lat":16.025781,"lng":120.4508977,"type":"Jeep","details":null,"schedule":null,"images":["https://ik.imagekit.io/krsqntzkg/sakayan/ddpzku1kjz9qzkgja1nx.jpg"],"created_by":null,"updated_at":"2026-04-10T15:20:10.007Z","created_at":"2026-04-02T10:31:36.609Z","likes":0,"dislikes":0,"outdated_votes":0,"creator_name":null,"my_vote":null},{"id":"2d1377b5-dbec-49e5-ba4b-cd26e38802c5","name":"Bontoc Jeepney Terminal","lat":17.0397471,"lng":121.1016619,"type":"Jeep","details":null,"schedule":null,"images":null,"created_by":null,"updated_at":"2026-04-02T10:31:31.157Z","created_at":"2026-04-02T10:31:31.157Z","likes":0,"dislikes":0,"outdated_votes":0,"creator_name":null,"my_vote":null},{"id":"74f30244-4e6a-48f4-85da-8ab1d3fe337d","name":"General Luna Integrated Terminal, New location for Datsco bus to Dapa","lat":9.7926335,"lng":126.1554369,"type":"Jeep","details":null,"schedule":null,"images":["https://ik.imagekit.io/krsqntzkg/sakayan/ychmacf7brvkfsv9phaj.jpg","https://ik.imagekit.io/krsqntzkg/sakayan/iomnhdkt1oc4ymb5ijex.jpg","https://ik.imagekit.io/krsqntzkg/sakayan/som00czjqnnp22goeegl.jpg","https://ik.imagekit.io/krsqntzkg/sakayan/fvxt3m226clse9cv5jc4.jpg"],"created_by":null,"updated_at":"2026-04-11T10:12:14.448Z","created_at":"2026-04-02T10:29:10.695Z","likes":0,"dislikes":0,"outdated_votes":0,"creator_name":null,"my_vote":null},{"id":"9fe6f8fa-69ff-4d11-ac03-50e05417e9ba","name":"Carmen Bus Terminal","lat":9.2283365,"lng":126.0177092,"type":"Jeep","details":null,"schedule":null,"images":null,"created_by":null,"updated_at":"2026-04-02T10:29:09.634Z","created_at":"2026-04-02T10:29:09.634Z","likes":0,"dislikes":0,"outdated_votes":0,"creator_name":null,"my_vote":null},{"id":"813b99b9-b27a-4abf-aaec-d841424c6aec","name":"Carrascal Bus Terminal","lat":9.3666879,"lng":125.9383862,"type":"Jeep","details":null,"schedule":null,"images":["https://ik.imagekit.io/krsqntzkg/sakayan/oqf9mcixmikownvngemf.jpg","https://ik.imagekit.io/krsqntzkg/sakayan/nxy0k3muihnispsllnfe.jpg","https://ik.imagekit.io/krsqntzkg/sakayan/xt5k3sqprip2zj2vmsji.jpg","https://ik.imagekit.io/krsqntzkg/sakayan/qqe6fm8lex0vcyyn5ojp.jpg"],"created_by":null,"updated_at":"2026-04-11T09:38:53.188Z","created_at":"2026-04-02T10:29:09.510Z","likes":0,"dislikes":0,"outdated_votes":0,"creator_name":null,"my_vote":null},{"id":"1267be3c-be81-4549-92f1-161115339554","name":"Cantilan Terminal","lat":9.3348344,"lng":125.9793251,"type":"Jeep","details":null,"schedule":null,"images":["https://ik.imagekit.io/krsqntzkg/sakayan/blasntzilrnlqqx1nked.jpg","https://ik.imagekit.io/krsqntzkg/sakayan/lzz8d1z5vttof4xokln6.jpg","https://ik.imagekit.io/krsqntzkg/sakayan/hjls8yw1jpgdugs6ugyg.jpg","https://ik.imagekit.io/krsqntzkg/sakayan/imdwyrcqspogdee6xgvx.jpg"],"created_by":null,"updated_at":"2026-04-11T10:22:42.919Z","created_at":"2026-04-02T10:29:09.385Z","likes":0,"dislikes":0,"outdated_votes":0,"creator_name":null,"my_vote":null},{"id":"0a26f988-961e-473e-8fdc-b43435e66060","name":"Dapa Terminal","lat":9.7559957,"lng":126.0509012,"type":"Jeep","details":null,"schedule":null,"images":null,"created_by":null,"updated_at":"2026-04-02T10:29:09.260Z","created_at":"2026-04-02T10:29:09.260Z","likes":0,"dislikes":0,"outdated_votes":0,"creator_name":null,"my_vote":null},{"id":"4b40790f-07f2-46f5-bca1-84075253a9b7","name":"Burgos Terminal","lat":9.2421761,"lng":126.1719719,"type":"Jeep","details":null,"schedule":null,"images":null,"created_by":null,"updated_at":"2026-04-02T10:29:08.966Z","created_at":"2026-04-02T10:29:08.966Z","likes":0,"dislikes":0,"outdated_votes":0,"creator_name":null,"my_vote":null},{"id":"32c23b98-6d79-4054-8336-daf5be8eb81a","name":"Cateel Tricycle Terminal","lat":7.7866825,"lng":126.4502857,"type":"Tricycle","details":null,"schedule":null,"images":null,"created_by":null,"updated_at":"2026-04-02T10:25:24.966Z","created_at":"2026-04-02T10:25:24.966Z","likes":0,"dislikes":0,"outdated_votes":0,"creator_name":null,"my_vote":null},{"id":"ab0d992c-04fc-4389-8ace-477c39381e2f","name":"Ula Tricycle Terminal","lat":7.1324128,"lng":125.4918205,"type":"Tricycle","details":null,"schedule":null,"images":null,"created_by":null,"updated_at":"2026-04-02T10:24:15.435Z","created_at":"2026-04-02T10:24:15.435Z","likes":0,"dislikes":0,"outdated_votes":0,"creator_name":null,"my_vote":null},{"id":"730c2442-5e56-486a-a1f2-bcdd06557445","name":"Carmen Tricycle Terminal","lat":7.3562266,"lng":125.7047666,"type":"Tricycle","details":null,"schedule":null,"images":["https://ik.imagekit.io/krsqntzkg/sakayan/ttpod0i7wg68wt0iqxij.jpg","https://ik.imagekit.io/krsqntzkg/sakayan/m2edoyijhhpypel4anzf.jpg","https://ik.imagekit.io/krsqntzkg/sakayan/qva76fzerkgevdmr4cwy.jpg","https://ik.imagekit.io/krsqntzkg/sakayan/g8qnlytj7ajrkmexw5fp.jpg"],"created_by":null,"updated_at":"2026-04-11T09:29:11.730Z","created_at":"2026-04-02T10:24:15.184Z","likes":0,"dislikes":0,"outdated_votes":0,"creator_name":null,"my_vote":null},{"id":"d786963d-06ac-4488-b676-3b2bf2dabf91","name":"Blamoda Tricycle Terminal","lat":7.1455807,"lng":125.4782378,"type":"Tricycle","details":null,"schedule":null,"images":null,"created_by":null,"updated_at":"2026-04-02T10:24:14.837Z","created_at":"2026-04-02T10:24:14.837Z","likes":0,"dislikes":0,"outdated_votes":0,"creator_name":null,"my_vote":null},{"id":"6bf3a532-c876-4ba4-a73b-e165c780d693","name":"BULADOA Tricycle Terminal","lat":7.1206349,"lng":125.4962488,"type":"Tricycle","details":null,"schedule":null,"images":null,"created_by":null,"updated_at":"2026-04-02T10:24:14.632Z","created_at":"2026-04-02T10:24:14.632Z","likes":0,"dislikes":0,"outdated_votes":0,"creator_name":null,"my_vote":null},{"id":"b9f915e0-52ff-4f9a-af3d-b3d898f70608","name":"Bunawan Tricycle Terminal","lat":7.2360288,"lng":125.6396869,"type":"Tricycle","details":null,"schedule":null,"images":null,"created_by":null,"updated_at":"2026-04-02T10:24:14.470Z","created_at":"2026-04-02T10:24:14.470Z","likes":0,"dislikes":0,"outdated_votes":0,"creator_name":null,"my_vote":null},{"id":"fa543e0f-1342-4833-bc14-5f8bf1241af1","name":"Jeepney from Ormoc drop off","lat":11.0616805,"lng":124.7030953,"type":"Jeep","details":null,"schedule":null,"images":["https://ik.imagekit.io/krsqntzkg/sakayan/fyespppm6x3cax4txlc6.jpg","https://ik.imagekit.io/krsqntzkg/sakayan/l3cuypg4wf7oln6ogenn.jpg","https://ik.imagekit.io/krsqntzkg/sakayan/dbqesbcc9lehoqlrquyv.jpg","https://ik.imagekit.io/krsqntzkg/sakayan/mypfoo7vka8evvhhwbgq.jpg"],"created_by":null,"updated_at":"2026-04-11T07:13:02.646Z","created_at":"2026-04-02T10:23:23.727Z","likes":0,"dislikes":0,"outdated_votes":0,"creator_name":null,"my_vote":null},{"id":"3e1aebe9-33c8-41b6-b60f-07f6f6218b27","name":"Tricycle Station","lat":10.9582382,"lng":125.0305622,"type":"Tricycle","details":null,"schedule":null,"images":null,"created_by":null,"updated_at":"2026-04-02T10:23:23.149Z","created_at":"2026-04-02T10:23:23.149Z","likes":0,"dislikes":0,"outdated_votes":0,"creator_name":null,"my_vote":null},{"id":"56eba64d-d9d7-408b-beb0-c278ab843cad","name":"CATODA Tricycle Terminal","lat":12.5117913,"lng":124.6619532,"type":"Tricycle","details":null,"schedule":null,"images":null,"created_by":null,"updated_at":"2026-04-02T10:19:19.981Z","created_at":"2026-04-02T10:19:19.981Z","likes":0,"dislikes":0,"outdated_votes":0,"creator_name":null,"my_vote":null},{"id":"fa5c6920-99fc-413f-a779-d221af29ed65","name":"Tacloban_Marabaras_Jeepney","lat":11.2208786,"lng":125.0045089,"type":"Jeep","details":null,"schedule":null,"images":null,"created_by":null,"updated_at":"2026-04-02T10:19:19.816Z","created_at":"2026-04-02T10:19:19.816Z","likes":0,"dislikes":0,"outdated_votes":0,"creator_name":null,"my_vote":null},{"id":"d4e9f19b-f0d9-4004-8ca4-a57fe6192190","name":"Tricycle Station","lat":12.50539,"lng":124.6420836,"type":"Tricycle","details":null,"schedule":null,"images":null,"created_by":null,"updated_at":"2026-04-02T10:19:19.215Z","created_at":"2026-04-02T10:19:19.215Z","likes":0,"dislikes":0,"outdated_votes":0,"creator_name":null,"my_vote":null},{"id":"6fe070eb-9669-4c36-9615-6c64c25f1365","name":"Jeepney Stop","lat":10.3390229,"lng":123.9055318,"type":"Jeep","details":null,"schedule":null,"images":["https://ik.imagekit.io/krsqntzkg/sakayan/viq3ds2qutdsotiz0f15.jpg","https://ik.imagekit.io/krsqntzkg/sakayan/eln01byexebynrgnozmu.jpg","https://ik.imagekit.io/krsqntzkg/sakayan/c5szgfpfbnczvdusujrh.jpg","https://ik.imagekit.io/krsqntzkg/sakayan/vengdtwa2dbuzaimpeu5.jpg"],"created_by":null,"updated_at":"2026-04-11T05:49:01.663Z","created_at":"2026-04-02T10:15:12.183Z","likes":0,"dislikes":0,"outdated_votes":0,"creator_name":null,"my_vote":null},{"id":"81910a45-effc-49ad-bdfe-a1a72e9ce5e8","name":"Jeepney stop","lat":10.3319702,"lng":123.9350269,"type":"Jeep","details":null,"schedule":null,"images":["https://ik.imagekit.io/krsqntzkg/sakayan/wovltjglxcais6w4o3ub.jpg","https://ik.imagekit.io/krsqntzkg/sakayan/x3mucye2f0decr2dyy1e.jpg","https://ik.imagekit.io/krsqntzkg/sakayan/a6s8rkoqhdk14cmncvd7.jpg","https://ik.imagekit.io/krsqntzkg/sakayan/oglrpnxsqvs1ejrubylf.jpg"],"created_by":null,"updated_at":"2026-04-11T10:35:23.440Z","created_at":"2026-04-02T10:15:11.500Z","likes":0,"dislikes":0,"outdated_votes":0,"creator_name":null,"my_vote":null},{"id":"949eb3b5-0c9f-432f-982b-84fa6af6e464","name":"Parc Regency - Monticello Jeepney Service","lat":10.7627618,"lng":122.5169612,"type":"Jeep","details":null,"schedule":null,"images":null,"created_by":null,"updated_at":"2026-04-02T10:12:08.380Z","created_at":"2026-04-02T10:12:08.380Z","likes":0,"dislikes":0,"outdated_votes":0,"creator_name":null,"my_vote":null},{"id":"c92885f1-68ad-47e5-8c54-d98593a17987","name":"Parc Regency - Monticello Jeepney Service","lat":10.7604902,"lng":122.53274,"type":"Jeep","details":null,"schedule":null,"images":["https://ik.imagekit.io/krsqntzkg/sakayan/olsvdefxnawmg5sjrrao.jpg","https://ik.imagekit.io/krsqntzkg/sakayan/dx5vkmbnfjrcgav0jbhn.jpg","https://ik.imagekit.io/krsqntzkg/sakayan/xkhktcyskqcngoyt4g7h.jpg","https://ik.imagekit.io/krsqntzkg/sakayan/bdo0hkt7jhrf9kzlxkma.jpg"],"created_by":null,"updated_at":"2026-04-11T12:30:15.852Z","created_at":"2026-04-02T10:12:08.167Z","likes":0,"dislikes":0,"outdated_votes":0,"creator_name":null,"my_vote":null},{"id":"22472bd6-ea8e-46f9-ab38-01c0441d2a4a","name":"Parc Regency - Monticello Jeepney Service","lat":10.7580129,"lng":122.526634,"type":"Jeep","details":null,"schedule":null,"images":null,"created_by":null,"updated_at":"2026-04-02T10:12:07.762Z","created_at":"2026-04-02T10:12:07.762Z","likes":0,"dislikes":0,"outdated_votes":0,"creator_name":null,"my_vote":null},{"id":"b1a2e26e-b387-48e1-b824-9ad36faaa517","name":"Parc Regency - Monticello Jeepney Service","lat":10.7530189,"lng":122.5364302,"type":"Jeep","details":null,"schedule":null,"images":["https://ik.imagekit.io/krsqntzkg/sakayan/mi8n2qvgbausvnay96eo.jpg","https://ik.imagekit.io/krsqntzkg/sakayan/wlmtpxy4rnt3ajezs7bw.jpg","https://ik.imagekit.io/krsqntzkg/sakayan/dkbnjmrtgpd4iwbxpnsd.jpg","https://ik.imagekit.io/krsqntzkg/sakayan/tohunhfb1f4ffhbcegdv.jpg"],"created_by":null,"updated_at":"2026-04-11T11:52:38.404Z","created_at":"2026-04-02T10:12:07.594Z","likes":0,"dislikes":0,"outdated_votes":0,"creator_name":null,"my_vote":null},{"id":"48ff6c7a-10b7-436a-a1bf-eaded821f1c6","name":"Jeepney to leganes","lat":10.7099433,"lng":122.5695078,"type":"Jeep","details":null,"schedule":null,"images":null,"created_by":null,"updated_at":"2026-04-02T10:12:07.465Z","created_at":"2026-04-02T10:12:07.465Z","likes":0,"dislikes":0,"outdated_votes":0,"creator_name":null,"my_vote":null},{"id":"520f58ae-7581-40ab-995a-47a717a0d03e","name":"Bus-Jeepney to tubungan","lat":10.6623437,"lng":122.321605,"type":"Jeep","details":null,"schedule":null,"images":["https://ik.imagekit.io/krsqntzkg/sakayan/qh1achoy8zew4bnaecjc.jpg","https://ik.imagekit.io/krsqntzkg/sakayan/yufm9mw7krb9ubzpriu4.jpg"],"created_by":null,"updated_at":"2026-04-11T10:44:53.623Z","created_at":"2026-04-02T10:12:07.296Z","likes":0,"dislikes":0,"outdated_votes":0,"creator_name":null,"my_vote":null},{"id":"c3f19cd8-df7e-44d1-9602-6907f6aa5fc7","name":"Jeepney to tagbak","lat":10.7082806,"lng":122.5678812,"type":"Jeep","details":null,"schedule":null,"images":["https://ik.imagekit.io/krsqntzkg/sakayan/yrhtof3aotynjd4uawjk.jpg","https://ik.imagekit.io/krsqntzkg/sakayan/aahwyqz1a5bqgt9pp3tk.jpg","https://ik.imagekit.io/krsqntzkg/sakayan/fy1zrah15a7jvvkckexk.jpg","https://ik.imagekit.io/krsqntzkg/sakayan/ylkrapxqysr9khqqki4u.jpg"],"created_by":null,"updated_at":"2026-04-11T10:47:53.091Z","created_at":"2026-04-02T10:12:07.168Z","likes":0,"dislikes":0,"outdated_votes":0,"creator_name":null,"my_vote":null},{"id":"2a4309e6-16d4-47ca-8bfe-bc7aaf8cdcca","name":"Jeepney (jaro liko nfa)","lat":10.692042,"lng":122.5717045,"type":"Jeep","details":null,"schedule":null,"images":null,"created_by":null,"updated_at":"2026-04-10T10:54:49.642Z","created_at":"2026-04-02T10:12:07.005Z","likes":0,"dislikes":0,"outdated_votes":0,"creator_name":null,"my_vote":null},{"id":"91575f0b-090f-4e75-a84a-21585b9c74de","name":"Bus and Jeepney Waiting Area","lat":10.6407143,"lng":122.2320327,"type":"Jeep","details":null,"schedule":null,"images":["https://ik.imagekit.io/krsqntzkg/sakayan/hafgecy6hjbo2wjjbbqo.jpg","https://ik.imagekit.io/krsqntzkg/sakayan/zx7wzyhtqjklstqapqu8.jpg","https://ik.imagekit.io/krsqntzkg/sakayan/fp24vjom4no4luhw9wka.jpg","https://ik.imagekit.io/krsqntzkg/sakayan/s7f5fctbv254zqqq8oxo.jpg"],"created_by":null,"updated_at":"2026-04-11T12:18:45.390Z","created_at":"2026-04-02T10:12:06.468Z","likes":0,"dislikes":0,"outdated_votes":0,"creator_name":null,"my_vote":null},{"id":"7672813c-58b7-4f5a-8f42-95ce8e364c91","name":"Airport Tricycle Terminal","lat":13.5790785,"lng":124.2122273,"type":"Tricycle","details":null,"schedule":null,"images":null,"created_by":null,"updated_at":"2026-04-02T10:09:53.002Z","created_at":"2026-04-02T10:09:53.002Z","likes":0,"dislikes":0,"outdated_votes":0,"creator_name":null,"my_vote":null},{"id":"902d958e-9f9c-44d2-a84b-7aa94b3f55ce","name":"Poblacion Tricycle Station","lat":12.8316596,"lng":120.767099,"type":"Tricycle","details":null,"schedule":null,"images":null,"created_by":null,"updated_at":"2026-04-02T10:06:40.605Z","created_at":"2026-04-02T10:06:40.605Z","likes":0,"dislikes":0,"outdated_votes":0,"creator_name":null,"my_vote":null},{"id":"4f7fc5af-4b33-48de-bd33-cf0b8d57aa06","name":"Tsitoda Tricycle Terminal","lat":13.6309273,"lng":122.243453,"type":"Tricycle","details":null,"schedule":null,"images":["https://ik.imagekit.io/krsqntzkg/sakayan/ggvdrdxfnos0zdk4pcig.jpg","https://ik.imagekit.io/krsqntzkg/sakayan/ga4cbcn8qldxlvjmz8gf.jpg","https://ik.imagekit.io/krsqntzkg/sakayan/dyukczqnpt77mhslfyaa.jpg","https://ik.imagekit.io/krsqntzkg/sakayan/owssndo6uhzqpamntpjr.jpg"],"created_by":null,"updated_at":"2026-04-11T12:42:03.843Z","created_at":"2026-04-02T10:05:58.124Z","likes":0,"dislikes":0,"outdated_votes":0,"creator_name":null,"my_vote":null},{"id":"f065297a-3167-4de0-9d55-0dea88f9f46c","name":"SV5A Langkiwa Tricycle Terminal","lat":14.2955374,"lng":121.0586112,"type":"Tricycle","details":null,"schedule":null,"images":null,"created_by":null,"updated_at":"2026-04-02T10:04:17.853Z","created_at":"2026-04-02T10:04:17.853Z","likes":0,"dislikes":0,"outdated_votes":0,"creator_name":null,"my_vote":null},{"id":"8baa3637-98ec-4558-bafa-645562715eff","name":"SV5A Langkiwa Tricycle Terminal","lat":14.3353233,"lng":121.0844619,"type":"Tricycle","details":null,"schedule":null,"images":["https://ik.imagekit.io/krsqntzkg/sakayan/wi9ggfk1jhskulhs5piq.jpg","https://ik.imagekit.io/krsqntzkg/sakayan/l9efy1msarovld45nwbw.jpg","https://ik.imagekit.io/krsqntzkg/sakayan/v82cgimnojs7oqvlt2ur.jpg","https://ik.imagekit.io/krsqntzkg/sakayan/tfbio94jgem6fi590thg.jpg"],"created_by":null,"updated_at":"2026-04-11T09:47:35.901Z","created_at":"2026-04-02T10:04:17.728Z","likes":0,"dislikes":0,"outdated_votes":0,"creator_name":null,"my_vote":null},{"id":"b00ccfbe-e5b3-492a-b1fa-daaecae08137","name":"Landers Nuvali","lat":14.2336905,"lng":121.0572296,"type":"Jeep","details":null,"schedule":null,"images":null,"created_by":null,"updated_at":"2026-04-02T10:04:17.567Z","created_at":"2026-04-02T10:04:17.567Z","likes":0,"dislikes":0,"outdated_votes":0,"creator_name":null,"my_vote":null},{"id":"bfe0602c-b6aa-46c6-afa5-5293aa8c08fb","name":"MCDC TODA - Tricycle Terminal","lat":14.2046614,"lng":121.0985089,"type":"Tricycle","details":null,"schedule":null,"images":null,"created_by":null,"updated_at":"2026-04-02T10:04:17.055Z","created_at":"2026-04-02T10:04:17.055Z","likes":0,"dislikes":0,"outdated_votes":0,"creator_name":null,"my_vote":null},{"id":"316cfdfb-ed08-4bd2-8d44-b8c5c46636a4","name":"Couples Tricycle Terminal","lat":14.179532,"lng":121.5096112,"type":"Tricycle","details":null,"schedule":null,"images":null,"created_by":null,"updated_at":"2026-04-02T10:04:16.741Z","created_at":"2026-04-02T10:04:16.741Z","likes":0,"dislikes":0,"outdated_votes":0,"creator_name":null,"my_vote":null},{"id":"4584b90e-fb6b-42e5-9d24-4763d7de6d9b","name":"LTODA Tricycle Terminal","lat":14.1816755,"lng":121.5102052,"type":"Tricycle","details":null,"schedule":null,"images":null,"created_by":null,"updated_at":"2026-04-02T10:04:16.429Z","created_at":"2026-04-02T10:04:16.429Z","likes":0,"dislikes":0,"outdated_votes":0,"creator_name":null,"my_vote":null},{"id":"992b3b40-963b-4744-bacf-1351c23831ba","name":"Estrella Jeepney Terminal","lat":14.3349449,"lng":121.0193101,"type":"Jeep","details":null,"schedule":null,"images":null,"created_by":null,"updated_at":"2026-04-02T10:04:16.112Z","created_at":"2026-04-02T10:04:16.112Z","likes":0,"dislikes":0,"outdated_votes":0,"creator_name":null,"my_vote":null},{"id":"36abcb66-eefa-4679-b8f1-b9b13a59157b","name":"Brgy. Memije, Pulido and Malia Terminal","lat":14.3049643,"lng":121.0131419,"type":"Jeep","details":null,"schedule":null,"images":null,"created_by":null,"updated_at":"2026-04-02T10:04:15.830Z","created_at":"2026-04-02T10:04:15.830Z","likes":0,"dislikes":0,"outdated_votes":0,"creator_name":null,"my_vote":null},{"id":"b8e4f2f7-0eb3-4348-960c-3a90aae327ac","name":"Alabang Jeepney Terminal","lat":14.3173451,"lng":121.1064111,"type":"Jeep","details":null,"schedule":null,"images":null,"created_by":null,"updated_at":"2026-04-02T10:04:15.596Z","created_at":"2026-04-02T10:04:15.596Z","likes":0,"dislikes":0,"outdated_votes":0,"creator_name":null,"my_vote":null},{"id":"7d195543-5526-497f-8f86-aa237a116aab","name":"Malitlit Tricycle Terminal","lat":14.2833188,"lng":121.1106311,"type":"Tricycle","details":null,"schedule":null,"images":null,"created_by":null,"updated_at":"2026-04-02T10:04:15.476Z","created_at":"2026-04-02T10:04:15.476Z","likes":0,"dislikes":0,"outdated_votes":0,"creator_name":null,"my_vote":null},{"id":"f8160cc1-4041-4134-89ed-d4a47ad072f1","name":"San Jose (jeepney stop)","lat":14.2118109,"lng":121.1276219,"type":"Jeep","details":null,"schedule":null,"images":["https://ik.imagekit.io/krsqntzkg/sakayan/zarmoc2kfswvehzv1qe8.jpg","https://ik.imagekit.io/krsqntzkg/sakayan/zfvdzvndnjkn4wla29se.jpg","https://ik.imagekit.io/krsqntzkg/sakayan/n6ocbcscay3nje0qxcck.jpg","https://ik.imagekit.io/krsqntzkg/sakayan/fkdxyca0kql8vs0lhgz5.jpg"],"created_by":null,"updated_at":"2026-04-11T12:11:26.446Z","created_at":"2026-04-02T10:04:15.356Z","likes":0,"dislikes":0,"outdated_votes":0,"creator_name":null,"my_vote":null},{"id":"3d538fe7-ea23-4c73-b261-b3e69654a864","name":"Jeepney Station (bound for Dolores, Quezon)","lat":14.0674602,"lng":121.3241112,"type":"Jeep","details":null,"schedule":null,"images":null,"created_by":null,"updated_at":"2026-04-02T10:04:14.926Z","created_at":"2026-04-02T10:04:14.926Z","likes":0,"dislikes":0,"outdated_votes":0,"creator_name":null,"my_vote":null},{"id":"f29d40fa-2a38-4738-ba12-c47ddc74005a","name":"Banaybanay II PUV Stop (for Batangas City)","lat":13.9211908,"lng":121.1060469,"type":"Jeep","details":null,"schedule":null,"images":["https://ik.imagekit.io/krsqntzkg/sakayan/tltmasxxpevzcojskcno.jpg"],"created_by":null,"updated_at":"2026-04-11T03:55:48.630Z","created_at":"2026-04-02T10:04:14.765Z","likes":0,"dislikes":0,"outdated_votes":0,"creator_name":null,"my_vote":null},{"id":"191f0b05-e8c7-4ae8-8fdb-ab9737d16c6a","name":"Tricycle Transportation Terminal","lat":14.3393111,"lng":121.0723665,"type":"Tricycle","details":null,"schedule":null,"images":null,"created_by":null,"updated_at":"2026-04-02T10:04:14.529Z","created_at":"2026-04-02T10:04:14.529Z","likes":0,"dislikes":0,"outdated_votes":0,"creator_name":null,"my_vote":null},{"id":"dac9d976-f141-4dda-b7a0-78deeefda446","name":"Balagbag Jeepney Terminal","lat":13.9805186,"lng":121.3009459,"type":"Jeep","details":null,"schedule":null,"images":["https://ik.imagekit.io/krsqntzkg/sakayan/ubsbe6i9wt9bb9kexvkg.jpg","https://ik.imagekit.io/krsqntzkg/sakayan/g9dpo0sg3x9rm4nygea8.jpg"],"created_by":null,"updated_at":"2026-04-11T03:39:48.636Z","created_at":"2026-04-02T10:04:14.369Z","likes":0,"dislikes":0,"outdated_votes":0,"creator_name":null,"my_vote":null},{"id":"8026c39a-a2fe-4375-bfe1-6676a6e460ec","name":"Caingin-Aplaya Tricycle Station","lat":14.3137081,"lng":121.1128326,"type":"Tricycle","details":null,"schedule":null,"images":null,"created_by":null,"updated_at":"2026-04-02T10:04:14.246Z","created_at":"2026-04-02T10:04:14.246Z","likes":0,"dislikes":0,"outdated_votes":0,"creator_name":null,"my_vote":null},{"id":"2ea8e8a2-0f19-493a-ab06-17b2e327bb57","name":"ELMLLTODA Tricycle Terminal","lat":14.1837811,"lng":121.5113596,"type":"Tricycle","details":null,"schedule":null,"images":null,"created_by":null,"updated_at":"2026-04-02T10:04:14.046Z","created_at":"2026-04-02T10:04:14.046Z","likes":0,"dislikes":0,"outdated_votes":0,"creator_name":null,"my_vote":null},{"id":"e836a56f-605c-414e-9443-2818bd1352f9","name":"Palo-Alto Jeepney Terminal","lat":14.208914,"lng":121.1235159,"type":"Jeep","details":null,"schedule":null,"images":null,"created_by":null,"updated_at":"2026-04-02T10:04:13.918Z","created_at":"2026-04-02T10:04:13.918Z","likes":0,"dislikes":0,"outdated_votes":0,"creator_name":null,"my_vote":null},{"id":"80e02e8e-e089-4d49-a838-acca3707c131","name":"Suero's Transport Terminal (Canlubang)","lat":14.2122733,"lng":121.1341724,"type":"Jeep","details":null,"schedule":null,"images":["https://ik.imagekit.io/krsqntzkg/sakayan/qrxpruuifuliqar7o57l.jpg","https://ik.imagekit.io/krsqntzkg/sakayan/hm7zegudwu1rlluikyzq.jpg","https://ik.imagekit.io/krsqntzkg/sakayan/t0m147zyc1g9j2aawmoy.jpg"],"created_by":null,"updated_at":"2026-04-11T11:09:14.913Z","created_at":"2026-04-02T10:04:13.798Z","likes":0,"dislikes":0,"outdated_votes":0,"creator_name":null,"my_vote":null},{"id":"2bf47573-2d34-4dcc-b686-6dbcd52d26b2","name":"Calamba Checkpoint SB PUV Stop","lat":14.2179545,"lng":121.1409584,"type":"Jeep","details":null,"schedule":null,"images":null,"created_by":null,"updated_at":"2026-04-10T10:39:06.055Z","created_at":"2026-04-02T10:04:13.680Z","likes":0,"dislikes":0,"outdated_votes":0,"creator_name":null,"my_vote":null},{"id":"ffcf77b4-ed2f-4d91-aa8f-b4796ecd5869","name":"Meralco Canlubang EB PUV Stop","lat":14.2119845,"lng":121.1325566,"type":"Jeep","details":null,"schedule":null,"images":null,"created_by":null,"updated_at":"2026-04-02T10:04:13.558Z","created_at":"2026-04-02T10:04:13.558Z","likes":0,"dislikes":0,"outdated_votes":0,"creator_name":null,"my_vote":null},{"id":"9d921584-c3e6-4a94-a4ab-0ca9a3f7ecc4","name":"Seda Nuvali","lat":14.2393904,"lng":121.0593411,"type":"Jeep","details":null,"schedule":null,"images":["https://ik.imagekit.io/krsqntzkg/sakayan/cvgf1zz49klifaltdgzg.jpg","https://ik.imagekit.io/krsqntzkg/sakayan/lxc0tisjmxullstisq1h.jpg","https://ik.imagekit.io/krsqntzkg/sakayan/ddz3fnvjgrozujwxeukw.jpg","https://ik.imagekit.io/krsqntzkg/sakayan/u5wsan1ijlexvanu3lst.jpg"],"created_by":null,"updated_at":"2026-04-11T06:32:10.668Z","created_at":"2026-04-02T10:04:13.438Z","likes":0,"dislikes":0,"outdated_votes":0,"creator_name":null,"my_vote":null},{"id":"9d05d146-6951-4423-b208-b264d0ce7213","name":"Longos to San Antonio Jeepney Terminal","lat":14.3388933,"lng":121.482693,"type":"Jeep","details":null,"schedule":null,"images":null,"created_by":null,"updated_at":"2026-04-02T10:04:13.278Z","created_at":"2026-04-02T10:04:13.278Z","likes":0,"dislikes":0,"outdated_votes":0,"creator_name":null,"my_vote":null},{"id":"a3d3bba2-a6c6-4fcb-ae16-35bc877ac1d5","name":"HVR Tricycle Terminal","lat":14.3402185,"lng":120.7915955,"type":"Tricycle","details":null,"schedule":null,"images":["https://ik.imagekit.io/krsqntzkg/sakayan/meggdpk33p1eve0x1imi.jpg","https://ik.imagekit.io/krsqntzkg/sakayan/kvrpkr2hg0rwxauprhmv.jpg","https://ik.imagekit.io/krsqntzkg/sakayan/i1kq72pa4878oidggrnr.jpg","https://ik.imagekit.io/krsqntzkg/sakayan/efew3zejhk6tsdxzwcff.jpg"],"created_by":null,"updated_at":"2026-04-10T15:08:36.027Z","created_at":"2026-04-02T10:04:05.949Z","likes":0,"dislikes":0,"outdated_votes":0,"creator_name":null,"my_vote":null},{"id":"47dd8e29-f8a4-4e1d-8515-d3dca878e0f7","name":"Tricycle Terminal","lat":14.6191119,"lng":121.1996935,"type":"Tricycle","details":null,"schedule":null,"images":null,"created_by":null,"updated_at":"2026-04-02T10:03:19.433Z","created_at":"2026-04-02T10:03:19.433Z","likes":0,"dislikes":0,"outdated_votes":0,"creator_name":null,"my_vote":null},{"id":"03608fde-8f95-4379-98a3-42a931612c46","name":"Tricycle Terminal","lat":14.6186532,"lng":121.1524226,"type":"Tricycle","details":null,"schedule":null,"images":["https://ik.imagekit.io/krsqntzkg/sakayan/p8zldu0whprhesmp4sz4.jpg","https://ik.imagekit.io/krsqntzkg/sakayan/um511b9l58nqpnelns2v.jpg","https://ik.imagekit.io/krsqntzkg/sakayan/oudjskldyvz16h13hclf.jpg"],"created_by":null,"updated_at":"2026-04-11T07:58:01.408Z","created_at":"2026-04-02T10:03:19.182Z","likes":0,"dislikes":0,"outdated_votes":0,"creator_name":null,"my_vote":null},{"id":"0e1b944f-1148-4a19-8f9b-92cfdbc9c720","name":"Tabing Ilog Tricycle Terminal","lat":14.6264592,"lng":121.1621001,"type":"Tricycle","details":null,"schedule":null,"images":["https://ik.imagekit.io/krsqntzkg/sakayan/vpuc58hd2e1kha7kkznh.jpg","https://ik.imagekit.io/krsqntzkg/sakayan/ggcr0p0sg29ahcw4nexl.jpg"],"created_by":null,"updated_at":"2026-04-11T05:32:48.311Z","created_at":"2026-04-02T10:03:18.779Z","likes":0,"dislikes":0,"outdated_votes":0,"creator_name":null,"my_vote":null},{"id":"d840b1eb-9a70-4364-bc4e-1d9fcc89caed","name":"Jeepney Montalban Cubao","lat":14.7344882,"lng":121.1591822,"type":"Jeep","details":null,"schedule":null,"images":["https://ik.imagekit.io/krsqntzkg/sakayan/czrely8nx86omn5zu52i.jpg"],"created_by":null,"updated_at":"2026-04-11T04:05:33.625Z","created_at":"2026-04-02T10:03:18.573Z","likes":0,"dislikes":0,"outdated_votes":0,"creator_name":null,"my_vote":null},{"id":"c8b6e4b9-de3a-403c-82af-92f7caec9daf","name":"Jeepney Montalban Wawa","lat":14.7302505,"lng":121.1849646,"type":"Jeep","details":null,"schedule":null,"images":["https://ik.imagekit.io/krsqntzkg/sakayan/pgbh5ee44jhfeovqxhbw.jpg","https://ik.imagekit.io/krsqntzkg/sakayan/cifuqmyvcfe9pqidpyfc.jpg"],"created_by":null,"updated_at":"2026-04-11T11:18:21.823Z","created_at":"2026-04-02T10:03:18.420Z","likes":0,"dislikes":0,"outdated_votes":0,"creator_name":null,"my_vote":null},{"id":"bfdfefec-7980-4aca-9165-f33769d4b5c8","name":"SFVM TODA Tricycle Terminal","lat":14.5450858,"lng":121.1501227,"type":"Tricycle","details":null,"schedule":null,"images":["https://ik.imagekit.io/krsqntzkg/sakayan/z2h9atzbymbydfz3ddnj.jpg","https://ik.imagekit.io/krsqntzkg/sakayan/ju069umcnggkxnih3js2.jpg"],"created_by":null,"updated_at":"2026-04-11T07:30:30.703Z","created_at":"2026-04-02T10:03:18.115Z","likes":0,"dislikes":0,"outdated_votes":0,"creator_name":null,"my_vote":null},{"id":"b90f956e-5983-446f-a04c-bdf70a8bf76d","name":"Montevilla Tricycle Terminal","lat":14.4997184,"lng":121.1777615,"type":"Tricycle","details":null,"schedule":null,"images":["https://ik.imagekit.io/krsqntzkg/sakayan/wwu0g8uatkmf73ld8uwu.jpg"],"created_by":null,"updated_at":"2026-04-10T15:05:43.259Z","created_at":"2026-04-02T10:03:17.862Z","likes":0,"dislikes":0,"outdated_votes":0,"creator_name":null,"my_vote":null},{"id":"701c5c53-fb44-4967-a43a-2935f06ac073","name":"Pugala Road Tricycle Terminal","lat":14.5398501,"lng":121.2581457,"type":"Tricycle","details":null,"schedule":null,"images":null,"created_by":null,"updated_at":"2026-04-02T10:03:17.306Z","created_at":"2026-04-02T10:03:17.306Z","likes":0,"dislikes":0,"outdated_votes":0,"creator_name":null,"my_vote":null},{"id":"fb7c8120-8a99-4a62-a8e2-a711a82e7c57","name":"Journal Tricycle Terminal","lat":14.6275657,"lng":121.1657671,"type":"Tricycle","details":null,"schedule":null,"images":["https://ik.imagekit.io/krsqntzkg/sakayan/moaro6mczmn4mtqkesfm.jpg"],"created_by":null,"updated_at":"2026-04-11T04:06:40.302Z","created_at":"2026-04-02T10:03:15.729Z","likes":0,"dislikes":0,"outdated_votes":0,"creator_name":null,"my_vote":null},{"id":"02adbd76-4e2a-45a9-bf40-271f4e40beae","name":"Tricycle - San Carlos Hts Gate 2","lat":14.5114734,"lng":121.1651885,"type":"Tricycle","details":null,"schedule":null,"images":null,"created_by":null,"updated_at":"2026-04-02T10:03:15.476Z","created_at":"2026-04-02T10:03:15.476Z","likes":0,"dislikes":0,"outdated_votes":0,"creator_name":null,"my_vote":null},{"id":"a085def9-122a-4e76-b310-6f51ff5aba3d","name":"Tricycle Stop Cor. Levitown, Wales","lat":14.4827826,"lng":121.0197559,"type":"Tricycle","details":null,"schedule":null,"images":["https://ik.imagekit.io/krsqntzkg/sakayan/e26qx1hqcnth8u1lgdq9.jpg","https://ik.imagekit.io/krsqntzkg/sakayan/njqgakeutvm7lvvgiz3t.jpg","https://ik.imagekit.io/krsqntzkg/sakayan/gmpr3672fatenu1sogvu.jpg","https://ik.imagekit.io/krsqntzkg/sakayan/ruvgte1wudcq0j3pfvis.jpg"],"created_by":null,"updated_at":"2026-04-11T10:02:51.744Z","created_at":"2026-04-02T10:02:55.157Z","likes":0,"dislikes":0,"outdated_votes":0,"creator_name":null,"my_vote":null},{"id":"4dca6210-1d6a-484d-9430-c7c89d1291a5","name":"North Ridge Park Subdivision Tricycle Terminal","lat":14.7144328,"lng":121.0568962,"type":"Tricycle","details":null,"schedule":null,"images":null,"created_by":null,"updated_at":"2026-04-02T10:02:54.159Z","created_at":"2026-04-02T10:02:54.159Z","likes":0,"dislikes":0,"outdated_votes":0,"creator_name":null,"my_vote":null},{"id":"f52daa73-1e78-490b-975e-c344439be4b7","name":"NBP Tricycle Terminal - Main Gate","lat":14.3870722,"lng":121.036525,"type":"Tricycle","details":null,"schedule":null,"images":null,"created_by":null,"updated_at":"2026-04-02T10:02:53.957Z","created_at":"2026-04-02T10:02:53.957Z","likes":0,"dislikes":0,"outdated_votes":0,"creator_name":null,"my_vote":null},{"id":"bf282a7c-7fe7-4b65-8e98-228d9e053dd6","name":"Southville 3 Phase 1 Tricycle Terminal","lat":14.3691438,"lng":121.0186167,"type":"Tricycle","details":null,"schedule":null,"images":["https://ik.imagekit.io/krsqntzkg/sakayan/fnizvn6br8haolaasehd.jpg"],"created_by":null,"updated_at":"2026-04-11T06:55:07.551Z","created_at":"2026-04-02T10:02:53.609Z","likes":0,"dislikes":0,"outdated_votes":0,"creator_name":null,"my_vote":null},{"id":"e76dae09-1d15-4012-8bb7-cebc799bda8f","name":"Maysan Tricycle Terminal","lat":14.6991438,"lng":120.9791417,"type":"Tricycle","details":null,"schedule":null,"images":["https://ik.imagekit.io/krsqntzkg/sakayan/yqxpagpbk2rwyvodmqfe.jpg","https://ik.imagekit.io/krsqntzkg/sakayan/iofxgjnuasgbqqxfgqpp.jpg","https://ik.imagekit.io/krsqntzkg/sakayan/aesgnwr4jtoqciav3ypx.jpg"],"created_by":null,"updated_at":"2026-04-11T09:36:27.284Z","created_at":"2026-04-02T10:02:53.407Z","likes":0,"dislikes":0,"outdated_votes":0,"creator_name":null,"my_vote":null},{"id":"0721df60-6fef-48d1-801f-00a841181cc4","name":"LTO Back Gate Tricycle Waiting Shed","lat":14.6353885,"lng":121.0475382,"type":"Tricycle","details":null,"schedule":null,"images":null,"created_by":null,"updated_at":"2026-04-02T10:02:52.399Z","created_at":"2026-04-02T10:02:52.399Z","likes":0,"dislikes":0,"outdated_votes":0,"creator_name":null,"my_vote":null},{"id":"f221deb0-b148-480c-bb30-c78946586779","name":"Tricycle Terminal","lat":14.6050208,"lng":121.1050565,"type":"Tricycle","details":null,"schedule":null,"images":["https://ik.imagekit.io/krsqntzkg/sakayan/klze8qvsmrb86qirn87t.jpg","https://ik.imagekit.io/krsqntzkg/sakayan/oxkvjureccdgs4wwf2wp.jpg","https://ik.imagekit.io/krsqntzkg/sakayan/wqlvbzabhhrtearoqruy.jpg"],"created_by":null,"updated_at":"2026-04-11T04:25:00.622Z","created_at":"2026-04-02T10:02:52.039Z","likes":0,"dislikes":0,"outdated_votes":0,"creator_name":null,"my_vote":null},{"id":"11b0d80d-dbeb-4a84-a9c3-6623ec50d2da","name":"Tricycle Terminal","lat":14.5355275,"lng":121.0921341,"type":"Tricycle","details":null,"schedule":null,"images":null,"created_by":null,"updated_at":"2026-04-02T10:02:51.592Z","created_at":"2026-04-02T10:02:51.592Z","likes":0,"dislikes":0,"outdated_votes":0,"creator_name":null,"my_vote":null},{"id":"954fdd25-c652-4ad3-a83a-67df69fe04a4","name":"Tricycle Terminal","lat":14.5071316,"lng":121.0522783,"type":"Tricycle","details":null,"schedule":null,"images":null,"created_by":null,"updated_at":"2026-04-02T10:02:51.233Z","created_at":"2026-04-02T10:02:51.233Z","likes":0,"dislikes":0,"outdated_votes":0,"creator_name":null,"my_vote":null},{"id":"39d97d81-da55-4127-8836-f239aeab3043","name":"Tricycle Tapayan Terminal","lat":14.5332664,"lng":121.1084077,"type":"Tricycle","details":null,"schedule":null,"images":null,"created_by":null,"updated_at":"2026-04-02T10:02:50.476Z","created_at":"2026-04-02T10:02:50.476Z","likes":0,"dislikes":0,"outdated_votes":0,"creator_name":null,"my_vote":null},{"id":"b7008417-8ac3-4088-92d4-e855144eeef9","name":"Palmera Phase 4 Tricycle","lat":14.7108753,"lng":121.0533409,"type":"Tricycle","details":null,"schedule":null,"images":null,"created_by":null,"updated_at":"2026-04-02T10:02:48.572Z","created_at":"2026-04-02T10:02:48.572Z","likes":0,"dislikes":0,"outdated_votes":0,"creator_name":null,"my_vote":null},{"id":"e9db67fa-4755-4660-81be-4decaa7d558e","name":"UP IKOT Jeepney Stop - Maginhawa","lat":14.6473138,"lng":121.062519,"type":"Jeep","details":null,"schedule":null,"images":["https://ik.imagekit.io/krsqntzkg/sakayan/jl2pckkxi08uravllpuu.jpg"],"created_by":null,"updated_at":"2026-04-11T06:30:01.021Z","created_at":"2026-04-02T10:02:46.293Z","likes":0,"dislikes":0,"outdated_votes":0,"creator_name":null,"my_vote":null},{"id":"f89bbdb5-1098-4cf9-bc32-76c430b810a7","name":"Seriya Tricycle Terminal","lat":15.0089995,"lng":120.8907104,"type":"Tricycle","details":null,"schedule":null,"images":null,"created_by":null,"updated_at":"2026-04-02T10:01:33.249Z","created_at":"2026-04-02T10:01:33.249Z","likes":0,"dislikes":0,"outdated_votes":0,"creator_name":null,"my_vote":null},{"id":"8997aefe-2502-4049-bffd-7921caa9595d","name":"Hinukay Tricycle Stop","lat":15.009275,"lng":120.883114,"type":"Tricycle","details":null,"schedule":null,"images":null,"created_by":null,"updated_at":"2026-04-02T10:01:33.118Z","created_at":"2026-04-02T10:01:33.118Z","likes":0,"dislikes":0,"outdated_votes":0,"creator_name":null,"my_vote":null},{"id":"54b31f63-105f-4768-880b-c2472a42ce4a","name":"DIASTODA Tricycle","lat":15.16261,"lng":120.5915259,"type":"Tricycle","details":null,"schedule":null,"images":null,"created_by":null,"updated_at":"2026-04-02T10:01:32.950Z","created_at":"2026-04-02T10:01:32.950Z","likes":0,"dislikes":0,"outdated_votes":0,"creator_name":null,"my_vote":null},{"id":"2f5102fd-4f89-455a-8147-280608058bf9","name":"BMSPT Tricycle Terminal","lat":15.2298322,"lng":120.6064852,"type":"Tricycle","details":null,"schedule":null,"images":null,"created_by":null,"updated_at":"2026-04-02T10:01:32.822Z","created_at":"2026-04-02T10:01:32.822Z","likes":0,"dislikes":0,"outdated_votes":0,"creator_name":null,"my_vote":null},{"id":"1871cef6-8680-4264-b3d4-40908ed0d2dd","name":"Pul-Mar Toda Tricycle Terminal","lat":15.1655551,"lng":120.601037,"type":"Tricycle","details":null,"schedule":null,"images":null,"created_by":null,"updated_at":"2026-04-02T10:01:32.651Z","created_at":"2026-04-02T10:01:32.651Z","likes":0,"dislikes":0,"outdated_votes":0,"creator_name":null,"my_vote":null},{"id":"140fce2f-f2e0-41c9-af14-0458a7ec71a1","name":"ACPM1 Tricycle Terminal","lat":15.1924385,"lng":120.6737625,"type":"Tricycle","details":null,"schedule":null,"images":null,"created_by":null,"updated_at":"2026-04-02T10:01:32.481Z","created_at":"2026-04-02T10:01:32.481Z","likes":0,"dislikes":0,"outdated_votes":0,"creator_name":null,"my_vote":null},{"id":"feeba26a-a4f8-432e-8565-0f46cae7f1b3","name":"Cuevas Narciso Toda Tricycle Terminal","lat":15.1623188,"lng":120.5840037,"type":"Tricycle","details":null,"schedule":null,"images":null,"created_by":null,"updated_at":"2026-04-02T10:01:32.267Z","created_at":"2026-04-02T10:01:32.267Z","likes":0,"dislikes":0,"outdated_votes":0,"creator_name":null,"my_vote":null},{"id":"1846b0cc-d00e-45b3-830f-92791e180a32","name":"CBSNV TODA Tricycle Terminal","lat":15.1733463,"lng":120.6224098,"type":"Tricycle","details":null,"schedule":null,"images":null,"created_by":null,"updated_at":"2026-04-02T10:01:32.122Z","created_at":"2026-04-02T10:01:32.122Z","likes":0,"dislikes":0,"outdated_votes":0,"creator_name":null,"my_vote":null},{"id":"fad55bcd-75c3-4681-89c5-a7f701c1da87","name":"Saint Dominic Tricycle Terminal","lat":14.896876,"lng":120.5415141,"type":"Tricycle","details":null,"schedule":null,"images":null,"created_by":null,"updated_at":"2026-04-02T10:01:31.991Z","created_at":"2026-04-02T10:01:31.991Z","likes":0,"dislikes":0,"outdated_votes":0,"creator_name":null,"my_vote":null},{"id":"138148eb-47c2-422d-9ddf-ddfb49f5cb78","name":"San Roque Tricycle Terminal","lat":14.9950522,"lng":120.886618,"type":"Tricycle","details":null,"schedule":null,"images":["https://ik.imagekit.io/krsqntzkg/sakayan/zqdxuhywshpe59aurpo0.jpg","https://ik.imagekit.io/krsqntzkg/sakayan/qnw8uml674ssfccikely.jpg","https://ik.imagekit.io/krsqntzkg/sakayan/qsqfyprio018bt0ryfgs.jpg"],"created_by":null,"updated_at":"2026-04-11T07:58:26.456Z","created_at":"2026-04-02T10:01:31.862Z","likes":0,"dislikes":0,"outdated_votes":0,"creator_name":null,"my_vote":null},{"id":"d02d03e4-0585-4d77-be0d-75bb801f88ac","name":"Pulong Palazan Tricycle Terminal","lat":15.0194087,"lng":120.8869191,"type":"Tricycle","details":null,"schedule":null,"images":null,"created_by":null,"updated_at":"2026-04-02T10:01:31.735Z","created_at":"2026-04-02T10:01:31.735Z","likes":0,"dislikes":0,"outdated_votes":0,"creator_name":null,"my_vote":null},{"id":"4302a548-1bc8-49d8-be60-c925d59e92f2","name":"Sulipan TODA Tricycle Terminal","lat":14.9477103,"lng":120.7589134,"type":"Tricycle","details":null,"schedule":null,"images":null,"created_by":null,"updated_at":"2026-04-02T10:01:31.606Z","created_at":"2026-04-02T10:01:31.606Z","likes":0,"dislikes":0,"outdated_votes":0,"creator_name":null,"my_vote":null},{"id":"a167d67a-eada-43fe-84bc-418a32b571e2","name":"LATODA Tricycle Terminal","lat":15.1733683,"lng":120.5841331,"type":"Tricycle","details":null,"schedule":null,"images":["https://ik.imagekit.io/krsqntzkg/sakayan/t0mfolabfp3chueeytee.jpg","https://ik.imagekit.io/krsqntzkg/sakayan/w7kktg8ofbjgbtqihrpv.jpg"],"created_by":null,"updated_at":"2026-04-10T15:06:34.133Z","created_at":"2026-04-02T10:01:31.476Z","likes":0,"dislikes":0,"outdated_votes":0,"creator_name":null,"my_vote":null},{"id":"2a8f2ef3-f752-472c-a229-13e76bc22a6b","name":"LB Toda Tricycle Terminal","lat":15.170954,"lng":120.5846213,"type":"Tricycle","details":null,"schedule":null,"images":["https://ik.imagekit.io/krsqntzkg/sakayan/ceiewcgh8jyyle3jpl2a.jpg","https://ik.imagekit.io/krsqntzkg/sakayan/ibylon0gapz7j7vdn1f7.jpg","https://ik.imagekit.io/krsqntzkg/sakayan/lxo3hypxjapuegtjkbrb.jpg","https://ik.imagekit.io/krsqntzkg/sakayan/o3n6ysnqqdcalbebssqy.jpg"],"created_by":null,"updated_at":"2026-04-11T11:06:25.218Z","created_at":"2026-04-02T10:01:31.342Z","likes":0,"dislikes":0,"outdated_votes":0,"creator_name":null,"my_vote":null},{"id":"dc4ab911-1540-44d7-9d8e-7c6283806314","name":"MOTDA Tricycle","lat":15.1700368,"lng":120.5969315,"type":"Tricycle","details":null,"schedule":null,"images":null,"created_by":null,"updated_at":"2026-04-02T10:01:31.089Z","created_at":"2026-04-02T10:01:31.089Z","likes":0,"dislikes":0,"outdated_votes":0,"creator_name":null,"my_vote":null},{"id":"7a41c555-eea6-4a44-a434-5983e64dcb8d","name":"Zeppelin Toda Tricycle Terminal","lat":15.159342,"lng":120.5811747,"type":"Tricycle","details":null,"schedule":null,"images":null,"created_by":null,"updated_at":"2026-04-02T10:01:30.868Z","created_at":"2026-04-02T10:01:30.868Z","likes":0,"dislikes":0,"outdated_votes":0,"creator_name":null,"my_vote":null},{"id":"18609b37-3a5d-4d38-a8ea-2cc209048b34","name":"SMV TODA Tricycle Terminal","lat":15.1585003,"lng":120.5914031,"type":"Tricycle","details":null,"schedule":null,"images":null,"created_by":null,"updated_at":"2026-04-02T10:01:30.741Z","created_at":"2026-04-02T10:01:30.741Z","likes":0,"dislikes":0,"outdated_votes":0,"creator_name":null,"my_vote":null},{"id":"2f1831aa-96d1-4a6f-854c-1739099db81b","name":"NATDA Tricycle","lat":15.1558644,"lng":120.5993349,"type":"Tricycle","details":null,"schedule":null,"images":["https://ik.imagekit.io/krsqntzkg/sakayan/xylpjgybkz7sfaf4llsy.jpg"],"created_by":null,"updated_at":"2026-04-11T06:56:58.924Z","created_at":"2026-04-02T10:01:30.524Z","likes":0,"dislikes":0,"outdated_votes":0,"creator_name":null,"my_vote":null},{"id":"3d5190ee-9aab-4955-8cf5-b0ac65544303","name":"Ventura NATDA Tricycle Sub Terminal","lat":15.1534484,"lng":120.597498,"type":"Tricycle","details":null,"schedule":null,"images":null,"created_by":null,"updated_at":"2026-04-02T10:01:30.396Z","created_at":"2026-04-02T10:01:30.396Z","likes":0,"dislikes":0,"outdated_votes":0,"creator_name":null,"my_vote":null},{"id":"66a1c80a-8bcf-4cbf-811c-016ac02f7715","name":"S.S. TODA Tricycle Terminal","lat":15.1478374,"lng":120.6005375,"type":"Tricycle","details":null,"schedule":null,"images":null,"created_by":null,"updated_at":"2026-04-10T10:11:49.501Z","created_at":"2026-04-02T10:01:30.127Z","likes":0,"dislikes":0,"outdated_votes":0,"creator_name":null,"my_vote":null},{"id":"4050764c-9f4b-4329-b8b1-c65e231a8b03","name":"NATDA Tricycle Terminal","lat":15.1486687,"lng":120.594283,"type":"Tricycle","details":null,"schedule":null,"images":null,"created_by":null,"updated_at":"2026-04-02T10:01:29.783Z","created_at":"2026-04-02T10:01:29.783Z","likes":0,"dislikes":0,"outdated_votes":0,"creator_name":null,"my_vote":null},{"id":"0135d608-a2c8-4f09-a93c-fb9344cdd969","name":"NATDA Tricycle","lat":15.1509621,"lng":120.5933269,"type":"Tricycle","details":null,"schedule":null,"images":["https://ik.imagekit.io/krsqntzkg/sakayan/th03arjncnzyvtqczcnq.jpg"],"created_by":null,"updated_at":"2026-04-11T10:41:49.574Z","created_at":"2026-04-02T10:01:29.654Z","likes":0,"dislikes":0,"outdated_votes":0,"creator_name":null,"my_vote":null},{"id":"417d453f-241d-479f-a6a0-799aaf06c232","name":"NATDA Tricycle","lat":15.1504007,"lng":120.5984991,"type":"Tricycle","details":null,"schedule":null,"images":["https://ik.imagekit.io/krsqntzkg/sakayan/egef4gpueuderxze9v94.jpg","https://ik.imagekit.io/krsqntzkg/sakayan/qa449zs38zjolfjaviw2.jpg","https://ik.imagekit.io/krsqntzkg/sakayan/qk5zjdcfxacb3bzriz9x.jpg","https://ik.imagekit.io/krsqntzkg/sakayan/werrmgg0qunxsxieyymf.jpg"],"created_by":null,"updated_at":"2026-04-11T10:13:24.137Z","created_at":"2026-04-02T10:01:29.395Z","likes":0,"dislikes":0,"outdated_votes":0,"creator_name":null,"my_vote":null},{"id":"cf4edee9-81a5-47ed-86ca-cb3067a2f0bc","name":"zone 6 Tricycle Terminal","lat":14.9718473,"lng":120.636925,"type":"Tricycle","details":null,"schedule":null,"images":["https://ik.imagekit.io/krsqntzkg/sakayan/gsalmqu3zkzh3yfak6fd.jpg"],"created_by":null,"updated_at":"2026-04-11T04:14:21.548Z","created_at":"2026-04-02T10:01:28.482Z","likes":0,"dislikes":0,"outdated_votes":0,"creator_name":null,"my_vote":null},{"id":"c6781f52-80b4-4611-83bd-7c569f436204","name":"Plaza Tricycle Terminal","lat":15.155642,"lng":120.5833854,"type":"Tricycle","details":null,"schedule":null,"images":null,"created_by":null,"updated_at":"2026-04-02T10:01:28.104Z","created_at":"2026-04-02T10:01:28.104Z","likes":0,"dislikes":0,"outdated_votes":0,"creator_name":null,"my_vote":null},{"id":"358b474e-855f-4ae2-bdfa-59d7dab640ef","name":"Parksons Jeepney Stand","lat":15.1952959,"lng":120.5358589,"type":"Jeep","details":null,"schedule":null,"images":null,"created_by":null,"updated_at":"2026-04-02T10:01:27.124Z","created_at":"2026-04-02T10:01:27.124Z","likes":0,"dislikes":0,"outdated_votes":0,"creator_name":null,"my_vote":null},{"id":"d62e5925-db14-4600-845d-8dbee3de9ed2","name":"Tricycle Terminal","lat":15.1663701,"lng":120.5633233,"type":"Tricycle","details":null,"schedule":null,"images":null,"created_by":null,"updated_at":"2026-04-02T10:01:26.996Z","created_at":"2026-04-02T10:01:26.996Z","likes":0,"dislikes":0,"outdated_votes":0,"creator_name":null,"my_vote":null},{"id":"87d7b973-eeb4-4033-a5e2-f5b9de6ee3c5","name":"Tricycle Zone","lat":14.9668108,"lng":120.6377804,"type":"Tricycle","details":null,"schedule":null,"images":null,"created_by":null,"updated_at":"2026-04-02T10:01:26.781Z","created_at":"2026-04-02T10:01:26.781Z","likes":0,"dislikes":0,"outdated_votes":0,"creator_name":null,"my_vote":null},{"id":"c8d71a0a-b1b1-4ea3-8b32-6d41656fdd9c","name":"San Simon Tricycle Terminal","lat":14.9803394,"lng":120.7532349,"type":"Tricycle","details":null,"schedule":null,"images":null,"created_by":null,"updated_at":"2026-04-02T10:01:26.113Z","created_at":"2026-04-02T10:01:26.113Z","likes":0,"dislikes":0,"outdated_votes":0,"creator_name":null,"my_vote":null},{"id":"6ecd9883-a318-44dd-b893-16d8f8d801ac","name":"Jeepney Terminal","lat":14.9736142,"lng":120.5307312,"type":"Jeep","details":null,"schedule":null,"images":null,"created_by":null,"updated_at":"2026-04-02T10:01:25.937Z","created_at":"2026-04-02T10:01:25.937Z","likes":0,"dislikes":0,"outdated_votes":0,"creator_name":null,"my_vote":null},{"id":"8f1bcc7f-0bc1-4e06-b31f-171c759bc7df","name":"PITODA Tricycle Terminal","lat":14.8739512,"lng":120.8213075,"type":"Tricycle","details":null,"schedule":null,"images":null,"created_by":null,"updated_at":"2026-04-02T10:01:25.809Z","created_at":"2026-04-02T10:01:25.809Z","likes":0,"dislikes":0,"outdated_votes":0,"creator_name":null,"my_vote":null},{"id":"a14744b5-0ce0-4dd1-a9d9-d9c810fb7583","name":"Jalung Tricycle Station","lat":15.0662826,"lng":120.5374008,"type":"Tricycle","details":null,"schedule":null,"images":null,"created_by":null,"updated_at":"2026-04-02T10:01:25.590Z","created_at":"2026-04-02T10:01:25.590Z","likes":0,"dislikes":0,"outdated_votes":0,"creator_name":null,"my_vote":null},{"id":"5fe63409-2d29-49b4-8475-1c925195dfcc","name":"Riverside Tricycle Station","lat":15.2230337,"lng":120.6616858,"type":"Tricycle","details":null,"schedule":null,"images":null,"created_by":null,"updated_at":"2026-04-02T10:01:25.166Z","created_at":"2026-04-02T10:01:25.166Z","likes":0,"dislikes":0,"outdated_votes":0,"creator_name":null,"my_vote":null},{"id":"b946eb48-7857-4add-aa66-734b99b48b58","name":"Jeepney Stop","lat":15.1863849,"lng":120.5439945,"type":"Jeep","details":null,"schedule":null,"images":null,"created_by":null,"updated_at":"2026-04-02T10:01:25.025Z","created_at":"2026-04-02T10:01:25.025Z","likes":0,"dislikes":0,"outdated_votes":0,"creator_name":null,"my_vote":null},{"id":"7b1c6364-f08c-4fc2-b82c-bcc7f00899b5","name":"Jeepney Stop","lat":16.379755,"lng":120.5191438,"type":"Jeep","details":null,"schedule":null,"images":["https://ik.imagekit.io/krsqntzkg/sakayan/hnszhnl6vctynkeynbmz.jpg","https://ik.imagekit.io/krsqntzkg/sakayan/x19qxjbaz643jxugyo44.jpg"],"created_by":null,"updated_at":"2026-04-11T04:07:31.253Z","created_at":"2026-04-02T09:59:56.993Z","likes":0,"dislikes":0,"outdated_votes":0,"creator_name":null,"my_vote":null},{"id":"23b14b3a-b3f5-40a9-8642-841cd2a7b254","name":"Jeepney Stop","lat":16.3763903,"lng":120.5061539,"type":"Jeep","details":null,"schedule":null,"images":null,"created_by":null,"updated_at":"2026-04-02T09:59:56.780Z","created_at":"2026-04-02T09:59:56.780Z","likes":0,"dislikes":0,"outdated_votes":0,"creator_name":null,"my_vote":null},{"id":"c3bf2544-7772-4042-a545-9ac0971dd57b","name":"Jeepney Stop","lat":16.3621023,"lng":120.494788,"type":"Jeep","details":null,"schedule":null,"images":null,"created_by":null,"updated_at":"2026-04-02T09:59:56.375Z","created_at":"2026-04-02T09:59:56.375Z","likes":0,"dislikes":0,"outdated_votes":0,"creator_name":null,"my_vote":null},{"id":"15e62e1f-365e-4710-b157-db0d6d6a6152","name":"Jeepney Stop","lat":16.3459769,"lng":120.495657,"type":"Jeep","details":null,"schedule":null,"images":["https://ik.imagekit.io/krsqntzkg/sakayan/mobpihagiilnfsap0agl.jpg"],"created_by":null,"updated_at":"2026-04-11T09:12:33.981Z","created_at":"2026-04-02T09:59:56.170Z","likes":0,"dislikes":0,"outdated_votes":0,"creator_name":null,"my_vote":null},{"id":"dbb98c1e-33ae-40f3-a07d-7ee6c08b0564","name":"Brookside Jeepney Terminal","lat":16.414911,"lng":120.6079937,"type":"Jeep","details":null,"schedule":null,"images":null,"created_by":null,"updated_at":"2026-04-02T09:59:55.764Z","created_at":"2026-04-02T09:59:55.764Z","likes":0,"dislikes":0,"outdated_votes":0,"creator_name":null,"my_vote":null},{"id":"b9186f25-23d5-4c27-b9e5-9762eb889cc9","name":"Pico-Lamtang Jeepney Loading Station","lat":16.4478793,"lng":120.5762155,"type":"Jeep","details":null,"schedule":null,"images":["https://ik.imagekit.io/krsqntzkg/sakayan/wb3riuy6iwg2hkomvslo.jpg","https://ik.imagekit.io/krsqntzkg/sakayan/q2eu67smt1k2il75yvph.jpg","https://ik.imagekit.io/krsqntzkg/sakayan/iaqjfg7yh0ntb0qi4ndy.jpg"],"created_by":null,"updated_at":"2026-04-11T09:50:47.898Z","created_at":"2026-04-02T09:59:55.408Z","likes":0,"dislikes":0,"outdated_votes":0,"creator_name":null,"my_vote":null},{"id":"21f2ab17-28c7-406d-b123-74b87032821f","name":"Socksargen Taxi","lat":6.1076272,"lng":125.149174,"type":"Cab","details":null,"schedule":null,"images":["https://ik.imagekit.io/krsqntzkg/sakayan/nkipvhdh5d8ewyd4fqrj.jpg","https://ik.imagekit.io/krsqntzkg/sakayan/ejq6quv1jzyjl24yhrrs.jpg","https://ik.imagekit.io/krsqntzkg/sakayan/v9sjhoonf9ovaghlkmu9.jpg","https://ik.imagekit.io/krsqntzkg/sakayan/rpjglumtct5xjtrw2cpc.jpg"],"created_by":null,"updated_at":"2026-04-11T12:44:06.329Z","created_at":"2026-04-02T09:48:27.342Z","likes":0,"dislikes":0,"outdated_votes":0,"creator_name":null,"my_vote":null},{"id":"11e10627-51e1-46f5-9b29-bf705b0d369f","name":"Canitoan Habalhabal Tricycle Operators Drivers Association, Inc.","lat":8.4747403,"lng":124.5966888,"type":"Tricycle","details":null,"schedule":null,"images":["https://ik.imagekit.io/krsqntzkg/sakayan/mfdfkdf7hhj41kvvpywj.jpg","https://ik.imagekit.io/krsqntzkg/sakayan/z1opwvsact17vok7tdg5.jpg","https://ik.imagekit.io/krsqntzkg/sakayan/akmigwrizzgmbafaueyn.jpg","https://ik.imagekit.io/krsqntzkg/sakayan/mzozdvy69mgvgorwwlf6.jpg"],"created_by":null,"updated_at":"2026-04-11T11:17:33.991Z","created_at":"2026-04-02T09:48:23.613Z","likes":0,"dislikes":0,"outdated_votes":0,"creator_name":null,"my_vote":null},{"id":"888814fe-cc45-4cea-a931-053ed599de82","name":"Alae Motorist Terminal","lat":8.4239182,"lng":124.8135662,"type":"Cab","details":null,"schedule":null,"images":["https://ik.imagekit.io/krsqntzkg/sakayan/zpjfvwj1w3zqrayvfj9l.jpg","https://ik.imagekit.io/krsqntzkg/sakayan/l3bgfavxasxqoh6nkekl.jpg","https://ik.imagekit.io/krsqntzkg/sakayan/jytudsjtr9naxhwydvbr.jpg","https://ik.imagekit.io/krsqntzkg/sakayan/s3eiyzx22vsrtzlx4sqp.jpg"],"created_by":null,"updated_at":"2026-04-11T10:27:04.954Z","created_at":"2026-04-02T09:48:23.453Z","likes":0,"dislikes":0,"outdated_votes":0,"creator_name":null,"my_vote":null},{"id":"0d65bbbf-8d56-408d-a8be-60d2fcb50ae2","name":"Taxi Alley Station","lat":8.5068798,"lng":124.7544086,"type":"Cab","details":null,"schedule":null,"images":null,"created_by":null,"updated_at":"2026-04-02T09:48:23.129Z","created_at":"2026-04-02T09:48:23.129Z","likes":0,"dislikes":0,"outdated_votes":0,"creator_name":null,"my_vote":null},{"id":"2892355c-1926-4c40-b165-16302abc0a9c","name":"Multicab Dipolog City","lat":8.5932025,"lng":123.3495594,"type":"Cab","details":null,"schedule":null,"images":null,"created_by":null,"updated_at":"2026-04-02T09:48:08.731Z","created_at":"2026-04-02T09:48:08.731Z","likes":0,"dislikes":0,"outdated_votes":0,"creator_name":null,"my_vote":null},{"id":"0d04fb5d-4093-4177-8cc1-393b215281c1","name":"Talacogon Multicab and Jeepney Terminal","lat":8.4497021,"lng":125.7864051,"type":"Cab","details":null,"schedule":null,"images":["https://ik.imagekit.io/krsqntzkg/sakayan/pnq1u43tsi4ctxzzjjfw.jpg"],"created_by":null,"updated_at":"2026-04-11T05:10:16.137Z","created_at":"2026-04-02T09:48:01.511Z","likes":0,"dislikes":0,"outdated_votes":0,"creator_name":null,"my_vote":null},{"id":"ec4021fa-01f1-457a-bd2c-c4f35913599d","name":"Butuan Bus Terminal","lat":8.9585285,"lng":125.535688,"type":"Bus","details":null,"schedule":null,"images":null,"created_by":null,"updated_at":"2026-04-02T09:48:00.761Z","created_at":"2026-04-02T09:48:00.761Z","likes":0,"dislikes":0,"outdated_votes":0,"creator_name":null,"my_vote":null},{"id":"b3da46d3-4dc0-4f0e-bb13-03e80572d4e1","name":"Butuan Transport Terminal","lat":8.9407626,"lng":125.5206968,"type":"Bus","details":null,"schedule":null,"images":["https://ik.imagekit.io/krsqntzkg/sakayan/xuriiqwtostczr1bslnf.jpg"],"created_by":null,"updated_at":"2026-04-11T05:02:29.112Z","created_at":"2026-04-02T09:48:00.603Z","likes":0,"dislikes":0,"outdated_votes":0,"creator_name":null,"my_vote":null},{"id":"161e0438-cd7f-4704-a9c3-2ecd4401b6da","name":"Midsayap Transport Terminal","lat":7.2065832,"lng":124.5394492,"type":"Cab","details":null,"schedule":null,"images":null,"created_by":null,"updated_at":"2026-04-02T09:47:53.376Z","created_at":"2026-04-02T09:47:53.376Z","likes":0,"dislikes":0,"outdated_votes":0,"creator_name":null,"my_vote":null},{"id":"e4363a85-5e27-42dd-8aa8-5df08a907158","name":"Midsayap Integrated Transport Terminal","lat":7.1870592,"lng":124.5558553,"type":"Cab","details":null,"schedule":null,"images":["https://ik.imagekit.io/krsqntzkg/sakayan/n9tczxman6nirrz0kdo1.jpg","https://ik.imagekit.io/krsqntzkg/sakayan/aoxs2aisbgazocplfzwn.jpg","https://ik.imagekit.io/krsqntzkg/sakayan/ueezb3klupbmflaxtao6.jpg","https://ik.imagekit.io/krsqntzkg/sakayan/iqatg8aw1pdfr3qvpdav.jpg"],"created_by":null,"updated_at":"2026-04-11T05:57:01.729Z","created_at":"2026-04-02T09:47:53.213Z","likes":0,"dislikes":0,"outdated_votes":0,"creator_name":null,"my_vote":null},{"id":"308ddea3-631f-4e3c-bbfe-496eb219dcca","name":"Master 66 (Pagadian)","lat":7.8393678,"lng":123.4543753,"type":"Cab","details":null,"schedule":null,"images":["https://ik.imagekit.io/krsqntzkg/sakayan/kdluck4vg3grtanuguw9.jpg","https://ik.imagekit.io/krsqntzkg/sakayan/wndkpmlmutecsdm1f21x.jpg","https://ik.imagekit.io/krsqntzkg/sakayan/caxccb7tireihlwresy8.jpg","https://ik.imagekit.io/krsqntzkg/sakayan/gpvqdzxitntcpjf45ari.jpg"],"created_by":null,"updated_at":"2026-04-11T03:56:17.755Z","created_at":"2026-04-02T09:47:38.837Z","likes":0,"dislikes":0,"outdated_votes":0,"creator_name":null,"my_vote":null},{"id":"79d4049c-e078-4488-bd4d-e99f19fb99b4","name":"Alabel Tricycle And Multicab Terminal (Capitol Branch)","lat":6.103043,"lng":125.2713148,"type":"Tricycle","details":null,"schedule":null,"images":["https://ik.imagekit.io/krsqntzkg/sakayan/eqcnkbiezcgovfeamyib.jpg","https://ik.imagekit.io/krsqntzkg/sakayan/il3bwkeehmkc7gu6qzsr.jpg","https://ik.imagekit.io/krsqntzkg/sakayan/aduujngc6dayq0hp4n8p.jpg","https://ik.imagekit.io/krsqntzkg/sakayan/agy8obdwclyrsc94ez4u.jpg"],"created_by":null,"updated_at":"2026-04-11T11:45:14.554Z","created_at":"2026-04-02T09:47:23.955Z","likes":0,"dislikes":0,"outdated_votes":0,"creator_name":null,"my_vote":null},{"id":"7c153667-b5d9-4157-b0e6-d01fae38903f","name":"Amlan Multicab Terminal","lat":9.3084357,"lng":123.305475,"type":"Cab","details":null,"schedule":null,"images":["https://ik.imagekit.io/krsqntzkg/sakayan/aswlhw8kls3axotynhrl.jpg","https://ik.imagekit.io/krsqntzkg/sakayan/gtlj0q2udm544tw8pm1u.jpg","https://ik.imagekit.io/krsqntzkg/sakayan/dbh84bnpfxvug9r17fyg.jpg","https://ik.imagekit.io/krsqntzkg/sakayan/zjqqo09fwkv8cef2bwv6.jpg"],"created_by":null,"updated_at":"2026-04-10T15:12:32.951Z","created_at":"2026-04-02T09:47:02.179Z","likes":0,"dislikes":0,"outdated_votes":0,"creator_name":null,"my_vote":null},{"id":"d6eac912-5f3f-4f3d-8746-cefcb975bd91","name":"Iloilo City-Santa Barbara Multicab Terminal","lat":10.8316907,"lng":122.497821,"type":"Cab","details":null,"schedule":null,"images":null,"created_by":null,"updated_at":"2026-04-02T09:46:54.689Z","created_at":"2026-04-02T09:46:54.689Z","likes":0,"dislikes":0,"outdated_votes":0,"creator_name":null,"my_vote":null},{"id":"3350200e-8800-4a07-adfc-9aa6d554d55c","name":"MULTICAB SV CEBU","lat":10.2738695,"lng":123.940684,"type":"Cab","details":null,"schedule":null,"images":null,"created_by":null,"updated_at":"2026-04-02T09:46:47.184Z","created_at":"2026-04-02T09:46:47.184Z","likes":0,"dislikes":0,"outdated_votes":0,"creator_name":null,"my_vote":null},{"id":"dbe1d9b7-5012-4be4-8208-be672a0289cb","name":"Cebu Multicabs","lat":10.2862072,"lng":123.9693832,"type":"Cab","details":null,"schedule":null,"images":null,"created_by":null,"updated_at":"2026-04-02T09:46:43.005Z","created_at":"2026-04-02T09:46:43.005Z","likes":0,"dislikes":0,"outdated_votes":0,"creator_name":null,"my_vote":null},{"id":"732e1559-73ef-4d52-8752-0741a435a722","name":"ManilaAngelesTransfer | Private Taxi","lat":15.16737,"lng":120.587075,"type":"Cab","details":null,"schedule":null,"images":["https://ik.imagekit.io/krsqntzkg/sakayan/svo9wvrcyfvmsxiaqcxl.png","https://ik.imagekit.io/krsqntzkg/sakayan/rtebloq2ml4uqkkmtymf.jpg"],"created_by":null,"updated_at":"2026-04-11T06:36:36.508Z","created_at":"2026-04-02T09:46:30.862Z","likes":0,"dislikes":0,"outdated_votes":0,"creator_name":null,"my_vote":null},{"id":"caa2b5ae-e4ed-49e1-ae8b-e305085a5b8d","name":"Joco Pao Taxi","lat":14.556523,"lng":120.988793,"type":"Cab","details":null,"schedule":null,"images":null,"created_by":null,"updated_at":"2026-04-02T09:46:18.855Z","created_at":"2026-04-02T09:46:18.855Z","likes":0,"dislikes":0,"outdated_votes":0,"creator_name":null,"my_vote":null},{"id":"9fe01fce-6358-4a96-b57e-3617f2e7c177","name":"Jaysabelle Taxi","lat":14.5404293,"lng":120.9953928,"type":"Cab","details":null,"schedule":null,"images":null,"created_by":null,"updated_at":"2026-04-02T09:46:18.738Z","created_at":"2026-04-02T09:46:18.738Z","likes":0,"dislikes":0,"outdated_votes":0,"creator_name":null,"my_vote":null},{"id":"06fc7758-f111-4486-b0a0-bb8316541bab","name":"Apostol taxi terminal","lat":14.7153572,"lng":121.0299591,"type":"Cab","details":null,"schedule":null,"images":["https://ik.imagekit.io/krsqntzkg/sakayan/rpiisifrpdunrivewbml.jpg","https://ik.imagekit.io/krsqntzkg/sakayan/rw988grxw7mzlr9zu3k1.jpg","https://ik.imagekit.io/krsqntzkg/sakayan/jvgtg6exltaqmcwdnz4n.jpg"],"created_by":null,"updated_at":"2026-04-11T12:40:58.929Z","created_at":"2026-04-02T09:46:10.120Z","likes":0,"dislikes":0,"outdated_votes":0,"creator_name":null,"my_vote":null},{"id":"a3783e39-387b-4b5e-b8dc-4364f1ed725f","name":"Multicab Biazon Terminal","lat":14.3725699,"lng":121.014346,"type":"Cab","details":null,"schedule":null,"images":["https://ik.imagekit.io/krsqntzkg/sakayan/puvwbhpgg9tzpvlgktfq.jpg","https://ik.imagekit.io/krsqntzkg/sakayan/mnawhhf3d8grbr9yekb8.jpg"],"created_by":null,"updated_at":"2026-04-11T09:12:01.900Z","created_at":"2026-04-02T09:46:01.631Z","likes":0,"dislikes":0,"outdated_votes":0,"creator_name":null,"my_vote":null},{"id":"7c208ce3-a3ab-4860-99b0-c5b5d249b7c1","name":"Multicab Terminal","lat":14.282684,"lng":120.8670265,"type":"Cab","details":null,"schedule":null,"images":null,"created_by":null,"updated_at":"2026-04-02T09:46:01.508Z","created_at":"2026-04-02T09:46:01.508Z","likes":0,"dislikes":0,"outdated_votes":0,"creator_name":null,"my_vote":null},{"id":"9a002e46-32ee-4f30-961f-e20a1f11411c","name":"Tricycle Terminal","lat":13.4051025,"lng":121.0383674,"type":"Tricycle","details":null,"schedule":null,"images":["https://ik.imagekit.io/krsqntzkg/sakayan/r2fjueredjjkjuypewpc.jpg","https://ik.imagekit.io/krsqntzkg/sakayan/yr2mzgqgx9peombkaqpc.jpg","https://ik.imagekit.io/krsqntzkg/sakayan/e45obwel0fqcwyrezcly.jpg"],"created_by":null,"updated_at":"2026-04-11T12:24:08.454Z","created_at":"2026-04-02T09:42:53.686Z","likes":0,"dislikes":0,"outdated_votes":0,"creator_name":null,"my_vote":null},{"id":"d2623b90-d060-4bd3-9597-ef6589f241fb","name":"Bitoda Terminal","lat":14.4601002,"lng":120.9660853,"type":"Tricycle","details":null,"schedule":null,"images":null,"created_by":null,"updated_at":"2026-04-02T09:42:31.262Z","created_at":"2026-04-02T09:42:31.262Z","likes":0,"dislikes":0,"outdated_votes":0,"creator_name":null,"my_vote":null},{"id":"0f096c53-db79-4836-b0a0-400d8235aa48","name":"BF Mapayapa TODA Tricycle Terminal","lat":14.6865037,"lng":121.064178,"type":"Tricycle","details":null,"schedule":null,"images":["https://ik.imagekit.io/krsqntzkg/sakayan/txueashkavmupggfs7fv.jpg","https://ik.imagekit.io/krsqntzkg/sakayan/vurzq68a4p0aewsmvbhj.jpg"],"created_by":null,"updated_at":"2026-04-11T12:11:00.754Z","created_at":"2026-04-02T09:42:31.144Z","likes":0,"dislikes":0,"outdated_votes":0,"creator_name":null,"my_vote":null},{"id":"d038cc51-2870-4736-bfe7-5e4bc6c00aa5","name":"Bagbag-Sauyo TODA Tricycle Terminal","lat":14.692046,"lng":121.0320604,"type":"Tricycle","details":null,"schedule":null,"images":null,"created_by":null,"updated_at":"2026-04-02T09:42:30.982Z","created_at":"2026-04-02T09:42:30.982Z","likes":0,"dislikes":0,"outdated_votes":0,"creator_name":null,"my_vote":null},{"id":"df6b9cf6-f72f-4a7d-b854-4c83f0beffc8","name":"BEHSTODA","lat":14.5669081,"lng":121.1235662,"type":"Tricycle","details":null,"schedule":null,"images":null,"created_by":null,"updated_at":"2026-04-02T09:42:30.863Z","created_at":"2026-04-02T09:42:30.863Z","likes":0,"dislikes":0,"outdated_votes":0,"creator_name":null,"my_vote":null},{"id":"a8c7cd09-befa-4e67-b1a5-d7de5e7fd815","name":"Bagbag-Sauyo TODA Tricycle Terminal","lat":14.6936963,"lng":121.0553821,"type":"Tricycle","details":null,"schedule":null,"images":["https://ik.imagekit.io/krsqntzkg/sakayan/imw7xlbzmbgmubqgui7z.jpg","https://ik.imagekit.io/krsqntzkg/sakayan/bzzx4lsczsrxulnperm3.jpg","https://ik.imagekit.io/krsqntzkg/sakayan/vzdp3svskqsrqbkzkbjm.jpg","https://ik.imagekit.io/krsqntzkg/sakayan/zvpyxhlfijsxkt8w2orc.jpg"],"created_by":null,"updated_at":"2026-04-11T10:33:16.236Z","created_at":"2026-04-02T09:42:30.623Z","likes":0,"dislikes":0,"outdated_votes":0,"creator_name":null,"my_vote":null},{"id":"83f62369-cee4-41dc-b230-3265c0a95887","name":"NPC TODA Terminal","lat":14.719257,"lng":121.0074936,"type":"Tricycle","details":null,"schedule":null,"images":["https://ik.imagekit.io/krsqntzkg/sakayan/bltuph4hizfdwnj2fnxk.jpg","https://ik.imagekit.io/krsqntzkg/sakayan/hcgy1gdhwx3xpbevry9g.jpg"],"created_by":null,"updated_at":"2026-04-11T11:53:29.916Z","created_at":"2026-04-02T09:42:30.305Z","likes":0,"dislikes":0,"outdated_votes":0,"creator_name":null,"my_vote":null},{"id":"1426cca4-5dd6-4118-b248-6d6db287698b","name":"Subtoda","lat":14.746656,"lng":121.131012,"type":"Tricycle","details":null,"schedule":null,"images":["https://ik.imagekit.io/krsqntzkg/sakayan/ed3g3wt4flmshi2kaa78.jpg"],"created_by":null,"updated_at":"2026-04-11T04:47:28.127Z","created_at":"2026-04-02T09:42:29.778Z","likes":0,"dislikes":0,"outdated_votes":0,"creator_name":null,"my_vote":null},{"id":"fd05d4a7-f368-4cac-b1a9-05515948448f","name":"Skyline Toda Terminal","lat":14.7978086,"lng":121.0704556,"type":"Tricycle","details":null,"schedule":null,"images":null,"created_by":null,"updated_at":"2026-04-02T09:42:29.576Z","created_at":"2026-04-02T09:42:29.576Z","likes":0,"dislikes":0,"outdated_votes":0,"creator_name":null,"my_vote":null},{"id":"5d9638f8-2125-42f2-9fc0-4e8ba1e46a87","name":"Skyline Toda Terminal","lat":14.8093341,"lng":121.0751395,"type":"Tricycle","details":null,"schedule":null,"images":["https://ik.imagekit.io/krsqntzkg/sakayan/bvphm5wvsjqxwxpy1fkx.jpg","https://ik.imagekit.io/krsqntzkg/sakayan/dw9vb0ruiaioesfghax0.jpg","https://ik.imagekit.io/krsqntzkg/sakayan/zsxpmg2dblhcpkkyyhcf.jpg","https://ik.imagekit.io/krsqntzkg/sakayan/uqocnbh6rtfhdfgyvnpe.jpg"],"created_by":null,"updated_at":"2026-04-11T12:33:58.942Z","created_at":"2026-04-02T09:42:29.455Z","likes":0,"dislikes":0,"outdated_votes":0,"creator_name":null,"my_vote":null},{"id":"30722ddd-cfbf-4df1-a075-9b83fe3b7897","name":"USTRODA Terminal","lat":14.5321626,"lng":121.0695344,"type":"Cab","details":null,"schedule":null,"images":["https://ik.imagekit.io/krsqntzkg/sakayan/fo3oz27mhvkbazpwr0ts.jpg","https://ik.imagekit.io/krsqntzkg/sakayan/mredowlv6eldp050fdjl.jpg","https://ik.imagekit.io/krsqntzkg/sakayan/edshpuosqaqosvh11bkk.jpg","https://ik.imagekit.io/krsqntzkg/sakayan/tnuklex8kj0vs8lj4f23.jpg"],"created_by":null,"updated_at":"2026-04-11T07:03:01.894Z","created_at":"2026-04-02T09:42:29.170Z","likes":0,"dislikes":0,"outdated_votes":0,"creator_name":null,"my_vote":null},{"id":"fcaffa3d-b92b-4ab9-b370-692ac20754c7","name":"United Terminal","lat":14.5438343,"lng":121.1061808,"type":"Cab","details":null,"schedule":null,"images":null,"created_by":null,"updated_at":"2026-04-02T09:42:28.924Z","created_at":"2026-04-02T09:42:28.924Z","likes":0,"dislikes":0,"outdated_votes":0,"creator_name":null,"my_vote":null},{"id":"8f7e0052-5546-449b-9f63-08294b9af563","name":"Pastol TODA Terminal","lat":14.806436,"lng":121.0202267,"type":"Tricycle","details":null,"schedule":null,"images":["https://ik.imagekit.io/krsqntzkg/sakayan/joqygxcgi9okleai1xdk.jpg","https://ik.imagekit.io/krsqntzkg/sakayan/p59c6h9rroirtauqruwy.jpg","https://ik.imagekit.io/krsqntzkg/sakayan/deksrb20hqbuoeqdrgvt.jpg","https://ik.imagekit.io/krsqntzkg/sakayan/q8ge9xf9vclzjxzx8iuk.jpg"],"created_by":null,"updated_at":"2026-04-11T12:23:14.031Z","created_at":"2026-04-02T09:42:28.556Z","likes":0,"dislikes":0,"outdated_votes":0,"creator_name":null,"my_vote":null},{"id":"acf06a56-6c4c-4587-8aa4-16959494adaf","name":"New Manila Toda","lat":14.6171406,"lng":121.0235466,"type":"Tricycle","details":null,"schedule":null,"images":null,"created_by":null,"updated_at":"2026-04-02T09:42:28.434Z","created_at":"2026-04-02T09:42:28.434Z","likes":0,"dislikes":0,"outdated_votes":0,"creator_name":null,"my_vote":null},{"id":"df436baa-1bb1-425d-85c7-4083151e8e20","name":"ER 20 TODA","lat":14.668382,"lng":121.0207544,"type":"Tricycle","details":null,"schedule":null,"images":null,"created_by":null,"updated_at":"2026-04-02T09:42:28.228Z","created_at":"2026-04-02T09:42:28.228Z","likes":0,"dislikes":0,"outdated_votes":0,"creator_name":null,"my_vote":null},{"id":"2deffb99-8028-490a-8fd1-8d4dc8a31ecb","name":"KAPSODA Terminal","lat":14.6458039,"lng":120.955678,"type":"Cab","details":null,"schedule":null,"images":null,"created_by":null,"updated_at":"2026-04-02T09:42:27.982Z","created_at":"2026-04-02T09:42:27.982Z","likes":0,"dislikes":0,"outdated_votes":0,"creator_name":null,"my_vote":null},{"id":"e6afcaa9-1c31-4eb2-855a-e39fae955eb1","name":"DAR TODA","lat":14.641292,"lng":120.9675434,"type":"Tricycle","details":null,"schedule":null,"images":["https://ik.imagekit.io/krsqntzkg/sakayan/tzef1llddfklmbpynu9k.jpg","https://ik.imagekit.io/krsqntzkg/sakayan/zds4ljowzzmwphl7qzx1.jpg","https://ik.imagekit.io/krsqntzkg/sakayan/gsnnyx2mqbk4nszijjbq.jpg","https://ik.imagekit.io/krsqntzkg/sakayan/vkodvyhwq7hxzvuduld3.jpg"],"created_by":null,"updated_at":"2026-04-11T04:23:11.828Z","created_at":"2026-04-02T09:42:27.817Z","likes":0,"dislikes":0,"outdated_votes":0,"creator_name":null,"my_vote":null},{"id":"b0ab0c63-204e-43bf-bdb7-159ae96ce21c","name":"CAMRES TODA Terminal","lat":14.7629747,"lng":121.0382905,"type":"Tricycle","details":null,"schedule":null,"images":null,"created_by":null,"updated_at":"2026-04-02T09:42:27.452Z","created_at":"2026-04-02T09:42:27.452Z","likes":0,"dislikes":0,"outdated_votes":0,"creator_name":null,"my_vote":null},{"id":"69ef04a5-2ed6-4d18-bfda-e65f8b42ed2c","name":"CAMRES TODA Terminal","lat":14.7624679,"lng":121.0436079,"type":"Tricycle","details":null,"schedule":null,"images":null,"created_by":null,"updated_at":"2026-04-02T09:42:27.329Z","created_at":"2026-04-02T09:42:27.329Z","likes":0,"dislikes":0,"outdated_votes":0,"creator_name":null,"my_vote":null},{"id":"8c9848bc-360a-446e-8669-52464dbe9432","name":"BF Homes Tricycle Terminal","lat":14.731472,"lng":121.0238187,"type":"Tricycle","details":null,"schedule":null,"images":null,"created_by":null,"updated_at":"2026-04-02T09:42:27.206Z","created_at":"2026-04-02T09:42:27.206Z","likes":0,"dislikes":0,"outdated_votes":0,"creator_name":null,"my_vote":null},{"id":"6827350e-efce-4d37-964a-e096e2de7fe4","name":"Philand Toda","lat":14.679922,"lng":121.0538388,"type":"Tricycle","details":null,"schedule":null,"images":null,"created_by":null,"updated_at":"2026-04-02T09:42:26.961Z","created_at":"2026-04-02T09:42:26.961Z","likes":0,"dislikes":0,"outdated_votes":0,"creator_name":null,"my_vote":null},{"id":"e75ae611-db66-4fe8-b849-68f89f616a53","name":"GBS Toda","lat":14.6951255,"lng":121.122384,"type":"Tricycle","details":null,"schedule":null,"images":null,"created_by":null,"updated_at":"2026-04-02T09:42:26.839Z","created_at":"2026-04-02T09:42:26.839Z","likes":0,"dislikes":0,"outdated_votes":0,"creator_name":null,"my_vote":null},{"id":"6c7cc4c2-2df5-4b8a-8161-5f2ab2fe6802","name":"Ttodai","lat":14.6557221,"lng":121.0972126,"type":"Tricycle","details":null,"schedule":null,"images":null,"created_by":null,"updated_at":"2026-04-02T09:42:26.716Z","created_at":"2026-04-02T09:42:26.716Z","likes":0,"dislikes":0,"outdated_votes":0,"creator_name":null,"my_vote":null},{"id":"6efec206-2996-499d-8715-2e588fef77aa","name":"B-201 - TODA","lat":14.508663,"lng":121.0331792,"type":"Tricycle","details":null,"schedule":null,"images":null,"created_by":null,"updated_at":"2026-04-02T09:42:26.592Z","created_at":"2026-04-02T09:42:26.592Z","likes":0,"dislikes":0,"outdated_votes":0,"creator_name":null,"my_vote":null},{"id":"566aecf4-84b0-4282-a67f-72ca18b9c1c2","name":"JUSVILTODA Terminal","lat":14.3881361,"lng":121.027653,"type":"Tricycle","details":null,"schedule":null,"images":null,"created_by":null,"updated_at":"2026-04-02T09:42:26.468Z","created_at":"2026-04-02T09:42:26.468Z","likes":0,"dislikes":0,"outdated_votes":0,"creator_name":null,"my_vote":null},{"id":"51422826-d31b-449e-b3b3-f16a09319631","name":"VS TODA","lat":14.8174445,"lng":120.9657215,"type":"Tricycle","details":null,"schedule":null,"images":null,"created_by":null,"updated_at":"2026-04-02T09:42:26.138Z","created_at":"2026-04-02T09:42:26.138Z","likes":0,"dislikes":0,"outdated_votes":0,"creator_name":null,"my_vote":null},{"id":"e3b97050-e05b-4f89-95bc-1c9f74619bf3","name":"TODA","lat":14.6512852,"lng":121.0161592,"type":"Tricycle","details":null,"schedule":null,"images":null,"created_by":null,"updated_at":"2026-04-02T09:42:26.015Z","created_at":"2026-04-02T09:42:26.015Z","likes":0,"dislikes":0,"outdated_votes":0,"creator_name":null,"my_vote":null},{"id":"29177faf-6cf0-4235-a5af-aff50995f9e4","name":"PABU TODA","lat":14.8106283,"lng":120.9861684,"type":"Tricycle","details":null,"schedule":null,"images":null,"created_by":null,"updated_at":"2026-04-02T09:42:25.675Z","created_at":"2026-04-02T09:42:25.675Z","likes":0,"dislikes":0,"outdated_votes":0,"creator_name":null,"my_vote":null},